station_id,name,longitude,latitude,height
188790,Abisko Aut,18.8164,68.3538,392.303
97280,Adelsö A,17.5213,59.3579,5.612
99090,Almagrundet A,19.1298,59.1547,3.0
167710,Arjeplog A,17.8396,66.0513,430.839
159880,Arvidsjaur A,19.2642,65.5941,382.45
92410,Arvika A,12.6354,59.6743,65.758
84340,Axstål,14.557,58.571,88.5
98040,Berga,18.115,59.068,4.3
151280,Bjuröklubb A,21.5754,64.4799,35.41
92130,Blomskog A,12.0754,59.2213,169.645
132110,Blåhammaren A,12.1734,63.1854,1086.952
161940,Boden,21.635,65.814,25.2
127130,Brämön A,17.739,62.2198,18.13
157870,Buresjön A,17.8554,65.558,394.05
123460,Börtnan A,13.8427,62.7548,467.246
94390,Daglösen A,14.1803,59.6612,133.077
116490,Delsbo A,16.5385,61.8264,70.667
123060,Dravagen A,13.6086,62.0936,566.642
115220,Edsbyn A,15.7144,61.3607,183.648
107440,Eggegrund A,17.5584,60.7298,3.731
97370,Enköping,17.12,59.65,24.6
96190,Eskilstuna A,16.4526,59.3821,12.577
52240,Falsterbo A,12.8166,55.3837,1.575
107140,Film A,17.9043,60.2358,33.381
96040,Floda A,16.3944,59.0558,31.337
148040,Fredrika A,18.3619,64.0744,327.684
78550,Fårösund Ar A,18.9533,57.9165,12.756
134410,Föllinge A,14.6048,63.6761,361.8
155790,Gielas A,15.0645,65.3269,578.328
76420,Gladhammar A,16.4526,57.7068,35.277
89230,Gotska Sandön A,19.194,58.3939,15.911
145130,Gubbhögen A,15.5529,64.2172,310.221
147560,Gunnarn A,17.6993,65.0094,275.491
87360,Gustaf Dalen A,17.4704,58.5929,25.0
103100,Gustavsfors A,13.799,60.1533,187.153
144310,Gäddede A,14.2207,64.5044,553.025
180760,Gällivare A,20.6413,67.1407,358.975
107420,Gävle A,17.1607,60.7161,16.125
84520,Gårdsjö A,14.3875,58.8768,210.675
71420,Göteborg A,11.9924,57.7156,3.038
74180,Hagshult,14.137,57.292,169.6
62260,Hallands Väderö A,12.5453,56.4496,9.172
135460,Hallhåxåsen A,15.3279,63.7685,375.391
114410,Hamra A,14.9918,61.6599,453.588
64020,Hanö A,14.8463,56.0135,58.622
163960,Haparanda A,24.1112,65.8237,13.243
87140,Harstena A,17.0074,58.2506,5.0
62040,Helsingborg A,12.7628,56.0304,43.07
155960,Hemavan-Gierevarto A,15.0623,65.7813,793.504
138390,Hemling A,18.5466,63.6503,182.186
68560,Hoburg A,18.1506,56.9209,34.118
140360,Holmögadd A,20.7565,63.5949,6.0
140460,Holmön A,20.8645,63.807,6.535
75520,Horn A,15.8623,57.8861,89.822
146050,Hoting A,16.2356,64.0875,241.55
125440,Hunge A,15.0845,62.7504,343.238
89560,Huvudskär Ost A,19.1833,58.9334,4.0
83190,Hällum A,13.0379,58.3218,70.071
63160,Hästveda,13.9431,56.28,102.5
53530,Hörby A,13.6673,55.8624,112.812
112540,Idre Fjäll,12.8525,61.8897,866.126
170860,Jokkmokk Flygplats,20.142,66.491,275.4
136410,Junsele A,16.95,63.6839,218.766
139260,Järnäsklubb A,19.6731,63.4351,5.928
192840,Karesuando A,22.4435,68.4418,329.68
84310,Karlsborg,14.507,58.514,94.5
65090,Karlskrona-Söderstjerna,15.589,56.15,2.4
93230,Karlstad Aut,13.4728,59.361,46.0
188850,Katterjåkk A,18.168,68.4202,514.248
106160,Kerstinbo A,16.9738,60.2683,55.695
85460,Kettstaka A,15.0271,58.7162,224.876
94190,Kilsbergen-Suttarboda A,14.8956,59.2996,218.353
95540,Kloten A,15.2522,59.8703,283.21
124300,Klövsjöhöjden A,14.1542,62.4952,802.503
86420,Kolmården-Strömsfors A,16.3069,58.6892,153.613
133500,Korsvattnet A,13.5009,63.8385,716.605
65510,Kosta,15.471,56.841,230.0
82360,Kroppefjäll-Granan A,12.1973,58.6065,173.75
136090,Krångede A,16.1699,63.1512,183.123
117430,Kuggören A,17.5216,61.7027,8.568
85390,Kvarn,15.434,58.645,71.9
167990,Kvikkjokk-Årrenjarka A,18.0198,66.8874,314.692
171790,Lakaträsk A,21.1285,66.2789,185.031
87440,Landsort A,17.8684,58.7429,17.484
180770,Latnivaara A,20.2704,67.2551,453.191
85240,Linköping-Malmslätt,15.523,58.398,94.0
63510,Ljungby A,13.8794,56.8525,148.485
162860,Luleå-Kallax Flygplats,22.124,65.543,19.9
128390,Lungö A,18.0899,62.6417,14.325
148330,Lycksele A,18.713,64.5481,210.07
85050,Malexander A,15.233,58.0716,197.27
52350,Malmö A,13.0708,55.5715,19.757
103420,Malung A,13.7072,60.6765,302.583
158740,Malå-Brännan A,18.5935,65.1512,363.111
166910,Mierkenis A,16.1053,66.6802,613.982
104580,Mora A,14.5041,60.9601,195.417
75250,Målilla A,15.8009,57.3845,95.667
81050,Måseskär A,11.3312,58.0937,14.973
191910,Naimakka A,21.5229,68.6762,402.202
170930,Nattavaara A,20.9238,66.7516,327.631
83420,Naven A,13.1084,58.6994,53.314
71190,Nidingen A,11.9049,57.3036,3.785
179960,Nikkaluokta A,19.0212,67.8527,466.765
81540,Nordkoster A,11.0038,58.892,33.362
86340,Norrköping-SMHI,16.147,58.5828,40.334
149560,Norsjö A,19.3744,64.9253,309.576
52360,Oskarsgrundet Aut,12.8575,55.597,1.0
172940,Paharova A,22.3315,66.8094,227.643
183750,Pajala A,23.3899,67.2036,163.774
182910,Parkalompolo A,22.8219,67.7301,312.183
149340,Petisträsk A,19.6943,64.5659,258.047
161710,Pite-Rönnskär A,21.5609,65.034,4.878
83450,Pålgrunden A,13.1514,58.7551,53.642
189720,Rensjön A,19.8351,68.073,493.651
177930,Ritsem A,17.4668,67.7255,541.214
65160,Ronneby-Bredåkra,15.265,56.267,58.2
73480,Rångedala A,13.1642,57.7846,297.467
162790,Rödkallen A,22.3709,65.3121,1.932
182810,Saittarova A,22.2288,67.3363,240.652
96560,Sala A,16.6843,59.9093,56.575
139120,Skagsudde A,19.0199,63.1872,9.343
98160,Skarpö A,18.7404,59.3446,19.287
54290,Skillinge A,14.3144,55.489,4.016
86440,Stavsjö Aut,16.3667,58.7333,60.0
154730,Stekenjokk A,14.5055,65.0929,1037.322
98230,Stockholm-Observatoriekullen A,18.0549,59.3417,43.133
178860,Stora Sjöfallet A,18.2907,67.4948,426.536
105220,Stora Spånsberget A,15.1374,60.3817,492.257
132170,Storlien-Storvallen A,12.1218,63.2826,583.124
163900,Storön A,23.0959,65.6972,2.394
93520,Sunne A,13.1166,59.8639,108.947
98490,Svanberga A,18.6313,59.8317,14.821
124030,Sveg A,14.4069,62.0462,357.187
99280,Svenska Högarna A,19.5022,59.4423,11.811
132030,Sylarna A,12.2748,63.0438,1030.11
82260,Såtenäs,12.711,58.428,55.1
99450,Söderarm A,19.4054,59.7531,14.006
178970,Tarfala A,18.6101,67.9124,1143.653
169790,Tjåkaape,19.21,66.309,580.4
74300,Tomtabacken A,14.4645,57.4981,355.895
126290,Torpshammar A,16.2742,62.4935,99.137
63590,Torup A,13.0601,56.9494,132.532
85020,Tranås Aut,15.0206,58.03,185.0
71360,Trubaduren Aut,11.6352,57.596,1.0
97100,Tullinge A,17.9093,59.1785,44.858
122260,Tännäs A,12.6676,62.4494,723.013
72090,Ullared A,12.7732,57.1134,122.356
97510,Uppsala Aut,17.632,59.8471,23.535
97530,Uppsala Flygplats,17.593,59.9,20.6
55570,Utklippan A,15.7048,55.9557,2.391
107450,Utvalnäs Aut,17.3574,60.7547,5.0
2021,Vassijaure Aut,18.258,68.4291,515.0
160970,Vidsel,20.15,65.875,182.566
146350,Vilhelmina A,16.8386,64.5798,348.198
71380,Vinga A,11.6048,57.6322,18.205
78400,Visby Flygplats,18.3516,57.6678,41.05
84050,Visingsö A,14.4058,58.0948,93.582
81350,Väderöarna A,11.0661,58.576,22.356
138070,Västmarkum A,18.2518,63.1243,141.392
64510,Växjö A,14.8296,56.8463,198.861
64560,Växjö-Kronoberg,14.7333,56.9252,182.0
173900,Ylinenjärvi A,23.4635,66.6223,133.672
114140,Älvdalen A,14.0355,61.2536,251.633
161910,Älvsbyn A,21.062,65.6691,43.384
106570,Åmot A,16.4279,60.9614,161.678
133260,Åreskutan Aut,13.0746,63.4304,1280.0
147090,Åsele A,17.3153,64.165,307.712
77210,Ölands norra udde A,17.0954,57.3671,2.762
66040,Ölands södra grund Aut,16.68,56.07,1.0
66110,Ölands södra udde A,16.4005,56.1977,1.53
95130,Örebro A,15.0455,59.2289,53.0
95170,Örebro Aut,15.2686,59.2671,23.0
52510,Örja Aut,12.8705,55.8798,11.0
108320,Örskär A,18.3729,60.5256,6.539
78280,Östergarnsholm A,18.9839,57.4408,8.127
172770,Överkalix-Svartbyn A,22.8427,66.2618,61.024
154860,Abelvattnet Aut,14.97,65.53,665.0
158990,Abraur,18.9195,65.9857,368.079
117330,Agö,17.4666,61.55,20.0
75040,Allgunnen,15.9681,57.0666,115.0
178790,Aluokta,18.9011,67.3094,385.0
82000,Alvhem,12.1454,58.0067,5.0
73250,Ambjörnarp,13.2833,57.4166,220.0
97390,Arlanda,17.9462,59.6557,38.0
92400,Arvika,12.591,59.6658,77.0
84660,Askersund,14.9,58.88,100.0
94370,Asphyttan,14.1859,59.6112,130.0
105550,Backa,15.1145,60.923,230.0
97260,Barkarby,17.8833,59.4166,17.0
82540,Bastorp,12.038,58.904,150.0
116650,Bjuråker,16.5833,61.85,66.0
151290,Bjuröklubb,21.5787,64.4806,36.0
53650,Björka,13.6333,55.7,32.0
142030,Björkede,12.9414,64.0432,451.0
83640,Björnegården,13.0666,58.5166,75.0
92170,Blomskog,12.0542,59.2891,110.0
83170,Borgunda,13.7995,58.288,181.0
105310,Borlänge,15.4606,60.502,120.0
105280,Borlänge Aut,15.4324,60.4889,140.0
105260,Borlänge Flygplats,15.5079,60.4294,152.0
72450,Borås,12.9468,57.7607,136.0
138270,Bredbyn,18.0592,63.4608,85.0
145450,Brännåkersfjället V,15.8307,64.7507,630.0
78240,Buttle,18.5297,57.4034,45.0
133030,Bydalen V,13.8907,63.044,1000.0
84620,Bällefors,14.1166,58.5833,90.0
136610,Bölestrand,16.15,63.1333,220.0
73430,Dalsjöfors,13.1238,57.722,257.0
107120,Dannemora,17.9049,60.2026,41.0
116480,Delsbo,16.5505,61.7854,88.0
156770,Dikanäs,15.9883,65.2365,485.0
156790,Dikanäs Skansnäs,16.0353,65.3235,525.0
105640,Domnarvet,15.45,60.5,128.0
96120,Dunker,16.9085,59.1907,32.0
132590,Edevik,12.8687,63.9801,412.0
115230,Edsbyn,15.8352,61.3784,161.0
65360,Emmaboda,15.55,56.6333,150.0
82380,Erikstad,12.4222,58.6426,65.0
96230,Eskilstuna,16.4594,59.3853,8.928
181970,Esrange,21.0694,67.8947,330.0
63470,Exens flygplats,13.7792,56.6778,127.0
98640,Experimentalfältet,18.0633,59.3664,14.0
86090,Falerum,16.2102,58.1425,80.0
52230,Falsterbo,12.8167,55.3837,1.541
105370,Falun,15.6591,60.6158,160.0
162800,Farstugrunden Aut,22.75,65.33,1.0
95320,Fellingsbro-Finnåker,15.5857,59.5345,51.0
107130,Films Kyrkby,17.9072,60.2357,39.0
125020,Finneby,15.4655,62.0424,259.0
85410,Finspång,15.8215,58.7104,41.0
122360,Fjällnäs,12.2223,62.5772,780.0
112510,Flötningen,12.2689,61.8526,670.0
106100,Folkärna,16.3125,60.169,68.0
23059,Fors 2,16.6604,63.0117,0.0
148050,Fredrika,18.419,64.0763,300.0
126300,Fränsta 2,16.2084,62.5165,110.0
63530,Fröslida,13.0666,56.8666,70.0
151550,Furuögrund,21.2263,64.9112,10.0
84390,Fägre,14.1265,58.6493,95.0
160750,Fällfors,20.7652,65.1089,195.0
160740,Fällfors,20.7891,65.1317,195.0
79580,Fårö,19.1592,57.8987,8.0
134460,Föllinge-Vägskälet,14.4323,63.7606,475.0
82110,Gendalen,12.647,58.1589,90.0
135640,Gisselås,15.3666,63.7,320.0
62550,Glommen,12.3579,56.9303,6.0
89240,Gotska Sandön,19.197,58.3928,12.0
127600,Gran,17.6333,62.0166,20.0
72070,Grimeton,12.394,57.1088,35.0
108300,Grundkallen,18.8666,60.5,23.0
84610,Gränna,14.4666,58.0333,130.0
99150,Grönskär,19.0306,59.2792,9.0
147570,Gunnarn,17.7085,65.0074,280.0
103090,Gustavsfors,13.8062,60.1508,189.492
94600,Gyttorp,14.9637,59.4996,115.0
144300,Gäddede,14.1596,64.5037,328.0
180740,Gällivare Flygplats,20.8144,67.1358,312.0
107400,Gävle,17.1693,60.6537,16.0
72630,Göteborg,11.9673,57.6996,30.0
72420,Göteborg-Landvetter Flygplats,12.2919,57.6764,154.0
135440,Hallviken,15.5,63.73,337.0
62400,Halmstad,12.9246,56.6749,25.0
62410,Halmstad flygplats,12.8167,56.6833,31.0
62420,Halmstad flygplats,12.85,56.6667,4.0
62530,Hanarp V,12.6739,56.8865,50.0
163950,Haparanda,24.113,65.8367,5.0
170670,Harads,20.9666,66.0833,35.0
161780,Haraholmen,21.6317,65.2391,4.0
87150,Harstena,17.0095,58.2502,5.0
74410,Hedenstorp,14.1111,57.7653,210.0
161650,Hednoret,21.55,65.8333,27.0
62030,Helsingborg,12.6906,56.0431,5.0
155940,Hemavan,15.086,65.821,482.03
155970,Hemavan Flygplats,15.0854,65.8077,458.0
78250,Herrvik,18.9174,57.4208,5.0
73230,Hestra D,13.6271,57.4657,225.0
68550,Hoburg,18.1471,56.9222,38.0
75410,Hultsfred,15.8528,57.4931,109.0
125450,Hunge,15.0984,62.7503,342.0
98290,Husarö,18.8417,59.5052,10.0
88590,Huvudskär,18.5708,58.9639,5.0
149160,Hällnäs-Lund,19.6314,64.2684,181.0
128370,Härnö,18.0618,62.6183,10.0
127380,Härnösand,17.9471,62.628,8.0
6057,Håknarp2,13.9349,57.8739,0.0
91520,Hångstad,11.9746,59.8633,130.0
145340,Högland,15.9166,64.5666,401.0
83610,Högstena,13.7166,58.2333,211.0
91660,Högsäter,11.97,59.88,135.0
117370,Hölick,17.4401,61.6239,5.0
147270,Idvattnet,17.0794,64.4542,352.0
169880,Jokkmokk,19.6424,66.6296,260.0
136420,Junsele,16.9508,63.6845,215.0
74470,Jönköping,14.1833,57.7666,98.0
74460,Jönköping-Axamos Flygplats,14.0733,57.7514,226.0
74450,Jönköpings gamla flygplats,14.17,57.75,98.0
163940,Kalix,23.2,65.85,6.0
66430,Kalmar,16.2944,56.727,15.0
66420,Kalmar flygplats,16.2922,56.6784,6.0
168910,Karats,18.8146,66.6932,414.0
192830,Karesuando,22.4502,68.4421,330.0
64130,Karlshamn,14.8494,56.182,5.0
93220,Karlstad Flygplats,13.3374,59.4446,107.0
188820,Katterjåkk,18.167,68.4207,513.911
189780,Kattuvuoma,19.9,68.2833,355.0
73610,Kinnared,13.1166,57.0333,100.0
12000,Kinvsåsen,13.4064,55.6547,0.0
180960,Kiruna,20.2333,67.85,505.0
180940,Kiruna Flygplats,20.3387,67.827,459.0
154720,Klimpfjäll,14.7908,65.062,594.0
150640,Klutmark,20.6333,64.75,80.0
124320,Klövsjö,14.2028,62.5335,549.0
182720,Kompelusvaara,22.2178,67.0919,263.0
173960,Korpilombolo M,23.0571,66.8542,178.0
137040,Kramfors-Gistgårdsön,17.7658,63.0502,5.0
64030,Kristianstad,14.1762,56.0332,3.0
54550,Kristianstad Everöd,14.0842,55.9245,17.0
62190,Kullen,12.454,56.3012,72.0
114270,Kvarnberg,14.8744,61.4446,434.0
167980,Kvikkjokk-Årrenjarka,18.0179,66.8876,314.0
85650,Kärnskogen,15.2833,58.85,108.0
21041,Kårböle 2,15.3149,61.9824,0.0
182930,Lainio,22.3465,67.7604,310.0
87450,Landsort,17.8709,58.7431,13.0
192710,Lannavaara,21.9814,68.0502,630.0
91620,Lennartsfors,11.9333,59.3,125.0
85250,Linköping,15.6333,58.4166,64.0
63500,Ljungby,13.948,56.8311,145.0
63050,Ljungbyhed,13.2318,56.0752,43.0
81130,Ljungskile,11.9321,58.2159,70.0
123070,Lofsdalen,13.2841,62.1132,610.0
162015,Luleå Sol,22.1113,65.5436,26.2
53430,Lund,13.229,55.693,25.0
53440,Lund LTH,13.2152,55.7142,73.0
83460,Lurö,13.2534,58.7904,55.0
102190,Lämbacken,12.6959,60.3097,177.0
83130,Längjum,13.0607,58.2212,95.0
188700,Låktatjåkko,18.458,68.375,1220.0
127140,Lörudden,17.6623,62.2314,2.0
53220,Maglarp Aut,13.0595,55.384,17.0
85040,Malexander,15.2352,58.0729,195.0
180750,Malmberget,20.6686,67.1705,373.0
53360,Malmö,13.0141,55.5782,13.0
53370,Malmö 2,12.9841,55.6048,3.0
53300,Malmö-Sturup Flygplats,13.3787,55.5231,72.0
103410,Malung,13.6997,60.6815,308.0
85520,Mariedamm,15.1611,58.8504,136.0
63280,Markaryd,13.6573,56.4579,118.0
104300,Mockfjärd,14.9585,60.5074,192.0
93360,Molkom,13.75,59.6166,93.0
73570,Molla,13.0668,57.936,190.0
77170,Mossen,17.0042,57.2833,10.0
73560,Mullsjö,13.8833,57.9166,240.0
183980,Muodoslompolo,23.4441,67.9443,240.0
160790,Myrheden,20.2124,65.2984,250.0
75240,Målilla,15.8315,57.3964,100.0
81060,Måseskär,11.3348,58.0944,14.0
133190,Mörsil,13.6488,63.3193,400.0
191900,Naimakka,21.5203,68.6763,403.0
172680,Naisheden,22.3666,66.5333,95.0
171920,Nattavaara by,21.0537,66.7586,350.0
179950,Nikkaluokta,19.0233,67.8488,470.0
114630,Noppikoski,14.85,61.5,340.0
134090,Norderön,14.3686,63.154,310.0
139340,Nordmaling,19.4875,63.5739,4.0
86360,Norrköping,16.2127,58.606,3.0
86350,Norrköping-Kungsängen,16.2383,58.5842,5.0
86370,Norrköping-Sörby,16.1212,58.6082,27.0
98460,Norrtälje 2,18.7091,59.7506,25.0
98510,Norrtälje-Väsby,18.7296,59.8524,10.0
145260,Norråker,15.7162,64.3308,279.0
149540,Norsjö,19.4746,64.9093,296.0
86480,Nyköpings Flygplats,16.9166,58.7833,42.0
74390,Nässjö,14.6895,57.6431,305.0
78040,Näsudden Aut,18.2222,57.0735,5.0
63220,Osby,14.0014,56.3616,83.0
183760,Pajala,23.3928,67.2101,168.0
11001,Perstorp,13.3512,56.1342,0.0
161790,Piteå,21.4907,65.3156,6.0
161770,Pitsund,21.52,65.23,8.0
171820,Pålkem M,21.6167,66.3855,261.0
169930,Randijaur,19.3168,66.761,290.0
95490,Riddarhyttan,15.5555,59.8085,155.0
188830,Riksgränsen,18.1232,68.4275,508.0
64600,Rinkaby,14.2666,55.9833,7.0
86570,Ripsa,16.9168,58.9817,40.0
177920,Ritsem,17.4718,67.7261,521.0
78300,Roma Aut,18.4639,57.4998,32.0
65730,Ronneby,15.2833,56.2,10.0
112080,Rörbäcksnäs,12.8226,61.1269,465.0
178680,Saltoluokta,18.55,67.3833,393.0
54230,Sandhammaren,14.1947,55.3872,4.0
98170,Sandhamn,18.9179,59.2901,15.0
54330,Simrishamn,14.3578,55.5449,13.0
108100,Singö,18.7436,60.1595,12.0
139110,Skagsudde,19.0194,63.1885,13.0
83270,Skara,13.4517,58.3961,119.0
83620,Skara,13.45,58.4,116.0
83240,Skara-Ekeberg,13.55,58.4,130.0
83200,Skara-Stenum,13.52,58.37,130.0
83260,Skara-Västerskog,13.33,58.38,105.0
150450,Skellefteå,20.9478,64.7584,40.0
151380,Skellefteå Flygplats,21.0717,64.6244,48.0
11018,Skättilljunga,13.927,55.9565,0.0
124390,Skålan,14.1666,62.65,452.0
63230,Skånes Fagerhult,13.4666,56.3666,118.0
53200,Smygehuk,13.3563,55.3376,5.0
81220,Smögen,11.2276,58.3571,20.0
84580,Snavlunda,14.8987,58.9671,144.0
88580,Stabbo,18.4493,58.9733,7.0
157720,Stensele,17.1536,65.0706,325.0
54400,Stenshuvud,14.2595,55.6646,112.0
167860,Stenudden,17.6677,66.5343,453.0
97400,Stockholm-Arlanda Flygplats,17.9545,59.6269,42.0
97200,Stockholm-Bromma Flygplats,17.9513,59.3537,14.0
98210,Stockholm-Observatoriekullen,18.0549,59.3417,43.133
77180,Stora Karlsö,17.9623,57.2893,40.0
133570,Stora Stensjön Aut,13.7251,63.9687,680.0
158850,Storberg,18.9505,65.5085,453.0
112530,Storbo V,12.3024,61.8691,660.0
149570,Storliden,19.4833,64.95,390.0
132620,Storlien,12.1009,63.3158,595.0
132180,Storlien-Visjövalen,12.1253,63.3028,642.0
23058,Storlien2,12.0875,63.3178,0.0
123480,Storsjö Kapell,13.0731,62.8016,580.0
163920,Storöhamn,23.0924,65.7306,7.0
81560,Strömstad,11.2,58.9333,20.0
135520,Strömsund,15.5894,63.8548,373.0
94580,Ställdalen,14.8881,59.9268,257.0
94660,Stångfallet,14.8833,59.95,230.0
159970,Suddesjaur,19.0929,65.8952,342.0
170790,Sudok,20.424,66.3006,170.0
127240,Sundsvall,17.2664,62.4066,35.0
127310,Sundsvall-Timrå Flygplats,17.441,62.5246,4.0
93340,Sutterhöjden,13.9333,59.5833,153.0
25060,Svappavaara 2,21.1062,67.6117,0.0
81340,Svarteborg,11.5572,58.5707,70.0
124020,Sveg,14.1904,62.0191,432.0
99270,Svenska Högarna,19.5028,59.4439,10.145
140200,Sydostbrotten Aut,20.1736,63.3368,24.0
113410,Särna,13.1335,61.7068,437.0
113420,Särna A,13.1828,61.6909,426.61
71470,Säve,11.8824,57.7786,20.0
117160,Söderhamn A,17.0983,61.2691,26.0
113110,Tandådalen Aut,13.0164,61.1766,830.0
73660,Tinghalla,13.85,57.9666,278.0
188840,Tornehamn Aut,18.6281,68.4324,512.0
189760,Torneträsk,19.7123,68.2201,393.0
71430,Torslanda,11.7833,57.7166,3.0
63600,Torup,13.0712,56.9632,85.0
133160,Trillevallen V,13.2166,63.2631,611.0
82190,Trollhättans Flygplats,12.3292,58.3141,43.0
86010,Tyllinge,16.0833,58.0166,110.0
155910,Tärnaby,15.25,65.7166,450.0
73470,Ulricehamn,13.4083,57.8052,175.0
140500,Umeå,20.2901,63.8302,10.0
140480,Umeå Flygplats,20.28,63.7931,7.31
108170,Understen,18.9227,60.2761,12.0
65020,Ungskär,15.8081,56.0419,2.0
97520,Uppsala,17.6219,59.8585,13.0
64400,Uråsa,14.95,56.6833,167.0
95640,Uttersberg,15.6666,59.75,95.0
88570,Utö,18.2669,58.9502,40.0
15060,V Horred,12.4618,57.3554,0.0
86130,Valdemarsvik,16.5828,58.2148,10.0
72080,Varberg,12.2741,57.1084,20.0
52550,Ven,12.7166,55.9,20.0
160960,Vidsel,20.1485,65.8728,180.06
137030,Viksbäcken,17.75,63.05,6.0
94170,Villingsberg,14.7,59.2833,148.0
156940,Vindel-Björkheden,16.7114,65.8211,350.0
157930,Vindel-Storsjö,17.05,65.7666,345.0
149120,Vindeln-Sunnansjönäs,19.7581,64.1371,237.471
95030,Vingåker,15.8163,59.0782,60.0
106500,Vintjärn,16.0581,60.8321,348.0
78390,Visby,18.2891,57.636,28.0
84060,Visingsö,14.401,58.0908,110.0
65310,Vissefjärda,15.6235,56.5124,114.0
25061,Vittangi,21.6757,67.6673,0.0
166870,Vuoggatjålme,16.3511,66.5759,500.0
81620,Väderöbod,11.0333,58.55,7.0
82230,Vänersborg,12.3616,58.3552,50.0
97620,Vängsö,17.2,59.1166,15.0
139540,Vännäs,19.6986,63.9187,87.0
83340,Västerplana,13.3508,58.5586,128.0
76470,Västervik,16.4683,57.7213,33.0
96350,Västerås,16.55,59.6166,10.0
96370,Västerås-Hässlö,16.6299,59.5888,6.0
107530,Västra Banken Aut,17.93,60.88,25.0
64520,Växjö,14.8004,56.8697,166.0
82010,Vårgårda-Hägrunga,12.8333,58.0166,148.0
53260,Ystad,13.8278,55.441,32.0
22046,Ytterturingen2,14.9926,62.4295,0.0
85490,Zinkgruvan,15.1253,58.8061,213.468
114160,Älvdalen 2,14.0348,61.2549,250.0
62180,Ängelholm-Barkåkra Flygplats,12.8558,56.2926,17.634
83540,Åkershus,13.2517,58.898,50.0
134520,Ålåsen,14.6063,63.8683,450.0
106580,Åmotsbruk,16.4631,60.9645,145.0
92030,Åmål,12.6969,59.0542,60.0
133230,Åre,13.1,63.4,440.0
147100,Åsele,17.3652,64.1619,326.0
94050,Åtorp,14.3652,59.0963,98.8
82650,Ödebyn,12.1833,58.7833,150.0
77220,Ölands norra udde,17.0976,57.3665,2.039
66120,Ölands södra udde,16.401,56.1957,3.0
84260,Örberga,14.826,58.4274,105.0
72290,Örby,12.7,57.4833,90.0
95160,Örebro,15.1574,59.2782,35.0
108640,Öregrund,18.4333,60.3333,7.0
138240,Örnsköldsviks Flygplats,18.9797,63.4119,107.0
134100,Östersund,14.6786,63.1736,345.0
134110,Östersund-Frösön Flygplats,14.4869,63.1981,375.8
102200,Östmark-Rännberg,12.6775,60.3328,198.0
102210,Östmark-Röjdåsen,12.6491,60.3548,308.0
172790,Överkalix-Svartbyn,22.8365,66.2646,46.0
173810,Övertorneå,23.653,66.381,55.0
105285,Borlänge Sol,15.4297,60.4878,168.0
147655,Gunnarn Sol,17.7,64.96,278.0
71415,Göteborg Sol,11.9796,57.6879,84.824
68545,Hoburg Sol,18.1506,56.921,36.0
93235,Karlstad Sol,13.4719,59.3591,46.0
180025,Kiruna Sol,20.4105,67.8408,423.0
53445,Lund Sol,13.2124,55.7138,90.0
81525,Nordkoster Sol,11.0038,58.892,34.025
86655,Norrköping Sol,16.1485,58.5824,53.0
98735,Stockholm Sol,18.0634,59.3534,41.0
132165,Storlien-Visjövalen Sol,12.124,63.3017,646.0
99275,Svenska Högarna Sol,19.502,59.4422,11.688
178985,Tarfala Sol,18.6101,67.9123,1144.0
140615,Umeå Sol,20.2398,63.8111,22.384
78645,Visby Sol,18.3448,57.6727,55.0
64565,Växjö Sol,14.7305,56.9269,182.0
77215,Ölands norra udde Sol,17.0987,57.3673,2.0
134615,Östersund Sol,14.4798,63.197,372.0
188800,Abisko,18.8166,68.3538,393.38
85600,Adelsnäs,15.9802,58.1998,97.0
92480,Adolfsfors,12.2333,59.8,125.0
178740,Aktse,18.3061,67.1498,530.0
72560,Alingsås D,12.5472,57.8939,72.054
134590,Almdalen,14.6701,63.9967,615.0
53640,Alnarp,13.0833,55.65,10.0
53390,Alnarp Fruktavdelning,13.0923,55.6571,10.0
156990,Ammarnäs,16.2283,65.9744,440.0
74730,Aneboda 1,14.5666,57.1166,188.0
74600,Aneboda 2,14.5639,57.1167,195.0
74510,Aneby,14.8913,57.8232,240.0
144530,Ankarvattnet,14.25,64.8666,460.0
95230,Arboga,15.8333,59.3833,50.0
53600,Arlöv,13.0473,55.6334,3.0
53770,Arlöv sockerbruk,13.0667,55.6333,3.0
97630,Aske,17.65,59.6166,15.0
106070,Avesta,16.1715,60.1413,99.043
72661,Backa,12.0539,57.8848,12.0
97190,Beckomberga,17.8974,59.3658,15.0
125470,Bensjö,15.4667,62.7139,310.0
74080,Berg,14.6906,57.1208,243.272
98610,Berga,18.1166,59.0833,15.0
96610,Bie,16.2135,59.083,21.0
136020,Bispgården,16.5358,63.0509,190.0
106080,Bjurfors,16.1282,60.1316,125.0
85160,Bjärka-Säby,15.7431,58.2662,100.0
163680,Björkfors,23.4666,65.9166,10.0
107040,Björklinge,17.5667,60.0514,31.0
178820,Björkudden,18.7131,67.3936,380.481
155710,Blaikliden,15.7486,65.0464,520.0
75140,Blankaström,15.9166,57.2166,80.0
78050,Bobbenarve,18.2833,57.0333,8.0
170630,Bodträskfors,20.925,66.0792,30.0
155900,Boksjö,15.8245,65.6772,475.0
72400,Bollebygd,12.5521,57.661,65.0
54300,Bollerup,14.0395,55.4926,57.568
66530,Borgholm,16.6666,56.8833,5.0
91130,Bredviken,11.9858,59.2184,100.0
96640,Broddbo,16.4634,59.9829,31.0
106040,Brovallen,16.3026,60.0989,100.154
92370,Brunsberg,12.9833,59.6166,70.0
161930,Brännbergs försöksgård,21.2666,65.8,88.0
82640,Brålanda,12.3666,58.5666,65.0
150210,Bygdsiljum,20.5,64.35,131.0
151570,Byske,21.2166,64.95,15.0
62600,Båstad,12.7974,56.45,9.0
115630,Dalfors,15.4083,61.2139,236.0
160600,Dalliden,20.3127,65.0157,330.0
115040,Dalstuga,15.7,61.0666,240.0
156850,Danasjö,16.5393,65.5374,652.0
94140,Degerfors,14.45,59.2333,85.0
94160,Degernäs,14.4666,59.25,100.0
81320,Dingle,11.5724,58.5289,20.0
91370,Djurskog,11.9321,59.6072,280.0
75120,Drageryd,15.9666,57.2001,77.0
132240,Duved,12.9333,63.4,385.0
116240,Dönje,16.4145,61.395,85.0
103050,Edebäck,13.55,60.0666,155.0
53710,Ekebo,13.1333,55.95,80.0
64330,Ekefors,14.7571,56.5546,145.0
66470,Ekerum,16.5812,56.7849,40.0
96140,Eklången,16.7429,59.2358,35.0
98630,Ekskogen,18.2298,59.633,4.0
72120,Fagered,12.8129,57.1978,100.0
107330,Fagerviken,17.7478,60.542,5.0
62520,Falkenberg,12.4798,56.8994,5.0
83090,Falköping,13.5397,58.1584,205.0
98620,Farsta,18.3664,59.3165,6.0
63650,Feringe,13.9304,56.95,160.0
94430,Filipstad,14.1666,59.7166,141.0
85430,Finspång,15.7801,58.715,45.0
136491,Fjällsjö,16.4056,63.7972,215.0
74420,Flahult,14.1455,57.6898,224.0
137080,Forse,17.0223,63.1461,125.604
93580,Forshult,13.5335,59.9445,110.0
75710,Forsnäs,15.2166,57.85,190.0
104090,Fredriksberg,14.3909,60.1417,304.749
126630,Fränsta,16.1833,62.5,110.0
134130,Frösön D,14.4898,63.1947,375.0
73390,Fägerhult,13.2369,57.6468,170.0
94410,Gammalkroppa,14.3166,59.6833,200.0
82030,Garn,12.1563,58.0492,15.0
63340,Genevad,13.0338,56.5684,20.0
73170,Gislaved,13.5324,57.2847,165.0
159770,Glommersträsk,19.6839,65.2764,394.387
85450,Godegård,15.167,58.7934,133.0
103290,Granåbron,13.8944,60.4403,310.0
112170,Grundforsen,12.8568,61.2797,412.0
105050,Grängesberg,14.9917,60.0784,300.0
105030,Grängesberg (fördelningsstation),15.02,60.0825,300.0
82200,Grästorp,12.6767,58.3354,55.0
105360,Gråda Kraftverk,15.0146,60.6046,155.0
95380,Grönbo,15.418,59.6396,85.0
122610,Grövelsjön,12.3153,62.0991,815.0
84690,Gudhammar,14.225,58.9056,75.0
76430,Gunnebo,16.5333,57.7166,18.0
98180,Gustavsberg,18.3725,59.3226,10.0
172740,Gyljen,22.7139,66.3792,50.0
106170,Gysinge,16.8857,60.2836,63.0
125501,Gällö,15.2389,62.9167,295.0
54650,Gärsnäs,14.1833,55.55,45.0
106670,Gästrike-Hammarby 1,16.5833,60.5501,70.0
106680,Gästrike-Hammarby 2,16.5833,60.5502,70.0
106630,Gästrike-Hammarby 4,16.5833,60.55,70.0
135420,Gåxsjö D,15.1633,63.7028,320.0
74350,Gödeberg,14.6333,57.5666,350.0
72430,Göteborg (inofficiell),12.0142,57.7166,30.0
62390,Halmstad,12.9247,56.675,25.0
54310,Hammenhög,14.1589,55.5049,50.0
108600,Harg,18.3964,60.1829,15.0
180710,Harrträsk,20.7,67.0333,410.0
62080,Hasslarp,12.8166,56.1333,10.0
123250,Hede,13.5184,62.4107,430.0
123340,Hedeviken,13.6724,62.4104,420.0
78420,Hejnum,18.6377,57.6954,53.0
138400,Hemling,18.5318,63.6574,190.0
78140,Hemse,18.3788,57.2437,22.072
85210,Herrberga,15.2184,58.3935,90.0
52560,Hilleshög,12.8472,55.925,60.0
86200,Holma,16.8157,58.3339,5.0
86120,Holmbo,16.3677,58.2075,70.0
161980,Holsvattnet,21.6,65.9666,37.0
146070,Hoting,16.2149,64.1236,240.0
117440,Hudiksvall,17.0829,61.7152,12.0
74480,Huskvarna,14.2837,57.7867,94.291
149700,Hällnäs,19.6293,64.3088,245.0
149710,Hällnäs Skogsskola,19.5,64.3333,175.0
85180,Härsnäs,15.2336,58.2884,126.803
75380,Hässleby,15.5689,57.6158,190.0
63080,Hässleholm,13.7445,56.1367,50.0
81630,Hållö,11.2166,58.3333,16.0
128560,Högbonden,18.478,62.8662,75.0
133050,Höglekardalen,13.7488,63.0785,594.865
95020,Högsjö,15.6858,59.0297,69.0
162970,Högsön,22.3961,65.8849,8.0
53630,Hököpinge,13.0166,55.5,17.0
102540,Höljes,12.5876,60.9053,236.488
83740,Hönsäter,13.4305,58.6331,80.0
105230,Idkerberget,15.231,60.3758,260.0
115460,Johannesberg,15.2128,61.8578,510.0
158810,Johannisberg,18.2074,65.3655,415.0
62560,Jonstorp,12.5514,56.931,25.0
53250,Jordberga,13.4001,55.4114,40.0
143440,Jormlien,13.9819,64.7291,383.088
166810,Jäckvik,16.9714,66.3874,433.56
126480,Järkvissle,16.6833,62.8166,90.0
133240,Järpströmmen,13.3845,63.3903,386.652
116430,Järvsö,16.1654,61.7112,148.945
76090,Karlshammar,16.45,57.15,8.0
93250,Karlstad,13.4455,59.384,80.0
64040,Karpalund,14.1,56.05,4.0
139200,Kasa D,19.0532,63.3266,30.0
75650,Kimramåla,15.847,57.0,146.0
155770,Kittelfjäll,15.5,65.25,560.0
83670,Klagstorp,13.8804,58.3331,130.0
95530,Kloten,15.2544,59.8707,285.0
53610,Knutstorp,13.1306,55.9834,96.0
63320,Knäred,13.3369,56.5216,60.0
103570,Knås,13.8985,60.9676,280.0
82100,Koberg,12.4166,58.1666,78.0
96330,Kolbäck,16.2552,59.5467,10.0
63610,Kolleberga,13.2666,56.0666,50.0
86650,Kolmårdssanatoriet,16.3301,58.6664,90.0
145280,Korsselbränna,15.5423,64.4571,178.0
106340,Kratte masugn,16.3861,60.4528,160.0
81150,Kristineberg,11.45,58.25,5.0
94180,Kristinehamn,14.0994,59.3102,46.71
148300,Kroksjö,17.9934,64.5073,500.0
114330,Kräckelbäcken,14.2,61.55,670.0
149610,Kulbäcksliden,19.5666,64.2,200.0
95660,Kvarntorp,15.2636,59.1164,60.0
83660,Kvänum,13.1472,58.3165,75.0
92630,Kyrkerud,12.1166,59.3833,110.0
72140,Källsjö,12.7018,57.2322,153.9
71510,Kärna,11.8049,57.8421,20.66
53480,Kävlinge,13.1,55.8,30.0
64610,Kåraboda,14.5804,56.4001,155.0
98400,Kårsta,18.2718,59.6575,20.0
104600,Kölaråsen,14.3637,60.2663,340.0
96310,Köping,15.9909,59.5171,10.0
53270,Köpinge,13.9379,55.4575,10.0
167730,Laisvallsby,17.1748,66.1347,460.0
83210,Lanna,13.127,58.3472,74.87
74640,Lannaskede,14.8638,57.3832,210.0
171710,Lassbyn,21.8228,66.0689,30.0
146380,Laxbäcken,16.4142,64.6389,345.0
104120,Lejen,14.4,60.2,340.0
105450,Leksand,15.0143,60.7248,172.638
65450,Lessebo,15.2747,56.7486,170.0
63670,Lidhult,13.4473,56.8333,170.0
83320,Lidköping,13.1166,58.4666,50.0
103600,Likenäs,13.014,60.6496,160.0
114510,Lillhärdal,14.0921,61.8547,440.0
95350,Lindesberg,15.2365,59.5737,70.0
84750,Lindhult,14.4139,58.7331,180.0
134180,Lit,14.8517,63.3081,270.0
126310,Ljungaverk,16.0694,62.4861,85.0
126460,Ljungå,16.3141,62.7594,220.0
116500,Ljusdal,16.1333,61.8333,140.0
122330,Ljusnedal,12.6021,62.5482,585.0
74530,Lommaryd,14.7342,57.8887,240.0
105100,Ludvika,15.1759,60.1415,165.0
162870,Luleå-Bergnäset,22.11,65.5746,12.156
53460,Lund geografiska institutionen,13.2,55.71,73.0
97240,Lyckås,17.6666,59.4,15.0
81170,Lysekil D,11.4321,58.2713,30.0
137110,Lännäs,17.6543,63.1663,30.0
106280,Långshyttan D,16.062,60.4612,110.0
156730,Långvattnet,16.6919,65.1049,420.0
151220,Lövånger,21.3152,64.3636,21.0
158750,Malå,18.7421,65.1812,308.635
95670,Marieberg,15.9802,59.5163,15.0
97170,Mariefred,17.2342,59.2661,10.0
65130,Marielund,15.5331,56.2182,25.0
83440,Mariestad,13.821,58.7132,48.245
172920,Markusvinsa,22.894,66.7259,163.362
155720,Marsliden,15.3668,65.0251,550.0
86330,Marviken,16.8157,58.5491,10.0
102600,Medskogen,12.464,60.6995,250.0
96070,Mellösa,16.5333,59.1014,35.0
166900,Mierkenis Aut,16.1137,66.6798,600.0
133630,Mo,13.4833,63.3166,330.0
85330,Motala Kraftverk,15.0753,58.5471,94.0
62130,Munka-Ljungby,12.9834,56.2287,20.0
144160,Munsvattnet,14.451,64.2734,520.0
183600,Muoniovaara,23.6448,67.9321,250.0
170850,Murjek,20.8813,66.4826,260.0
78320,Mästerby,18.2739,57.4725,36.385
66320,Mörbylånga,16.3918,56.5192,2.0
74630,Naglarp,14.8833,57.4666,250.0
167600,Njuonjesbäck,17.4796,66.9488,380.0
95300,Nora,15.047,59.5164,91.0
128510,Nordvik,18.0159,62.8485,20.0
171780,Norriån,21.8,66.25,55.0
157600,Norrsele,17.4795,65.5657,348.0
97180,Nyckelby,17.7166,59.3,25.0
62140,Nyhamnsläge,12.5401,56.2451,12.454
86660,Nyköping,16.98,58.7665,23.0
87570,Nynäshamn,17.9318,58.919,10.0
65080,Nättraby,15.5417,56.2069,20.0
74240,Nävelsjö,14.891,57.4042,215.0
137070,Offer,17.7617,63.1492,27.0
76530,Ogestad,16.1689,57.8748,81.0
64170,Olofström,14.5177,56.2773,65.0
134610,Ope,14.7774,63.1966,350.0
162980,Orrbyn,22.116,65.9446,15.0
107220,Orrskog,17.4167,60.3833,35.0
63210,Osby 1,13.9778,56.3778,10.0
76160,Oskarshamn,16.4114,57.267,12.072
87400,Oxelösund,17.1199,58.6772,7.154
94450,Persberg,14.2354,59.7497,225.0
169980,Porjus,19.823,66.9597,375.0
74440,Prästkulla,14.9829,57.7236,293.95
171810,Pålkem,21.6098,66.3888,265.0
136320,Ramsele,16.4667,63.5333,205.0
125110,Ramsjö,15.6508,62.1843,220.0
74490,Ramsjöholm,14.4286,57.8431,232.76
83280,Remningstorp,13.6671,58.4529,140.0
137200,Resele,17.0676,63.3279,95.0
150090,Rickleå fältstation,20.9444,64.0875,10.0
98250,Rindö,18.3666,59.4166,5.0
72150,Ringhals,12.1032,57.253,10.0
72160,Ringhals Aut,12.107,57.2577,10.0
85750,Risinge,15.7707,58.7124,40.0
108110,Risinge,18.224,60.1748,17.21
78310,Roma,18.4539,57.5069,32.0
85010,Romanäs,15.0222,58.0694,155.0
72300,Rossared D,12.1997,57.485,15.0
64620,Ryd,14.7166,56.45,140.0
84640,Ryholm,14.2167,58.5819,95.0
75160,Ryningsnäs,15.9333,57.2666,90.0
105200,Rämshyttan,15.2,60.3333,260.0
105540,Rättvik,15.1087,60.8928,175.0
83630,Rånna,13.8333,58.45,125.0
81040,Rörastrand,11.6454,58.0578,9.465
98260,Röskär,18.1666,59.4166,15.0
134150,Rösta,14.5535,63.2443,360.0
116230,Röstebo,16.4295,61.3882,115.0
96550,Sala,16.6579,59.9036,56.295
159680,Saltmyran,19.5,65.4166,350.0
107050,Sandbro,17.5833,60.0042,35.0
76000,Sandbäckshult,16.283,56.9835,37.0
72340,Sandsjöbacka,12.0387,57.5571,50.0
106360,Sandviken,16.7896,60.6103,65.0
54390,Sankt Olof,14.1273,55.6402,130.0
170920,Sarkavara,20.3605,66.7374,385.0
178850,Satis,18.3911,67.5009,425.0
127220,Sidsjö D,17.2854,62.3809,60.0
135380,Sikåskälen,15.0929,63.6198,490.0
104530,Siljansfors,14.3786,60.8846,260.0
63440,Simlångsdalen,13.1247,56.7154,75.0
83050,Simonstorp,13.3957,58.0788,190.0
86470,Simonstorp_ö,16.1544,58.7847,80.0
63450,Singeshult,13.3608,56.7429,165.0
64630,Sjöaryd,14.75,56.5166,150.0
53660,Sjöholmen,13.4305,55.9167,55.0
83690,Sjötorp,13.9854,58.8388,50.0
139630,Skag,19.0462,63.1992,10.0
98100,Skansen,18.1019,59.3252,34.0
66500,Skedemosse,16.7337,56.823,25.0
97750,Skeppsta,17.15,59.1417,20.0
95500,Skinnskatteberg,15.6833,59.8333,113.0
53670,Skivarp,13.5805,55.4334,20.0
132150,Skurdalshöjden,12.1,63.335,781.0
85280,Skärkind,16.0017,58.472,60.0
74690,Skärshult,14.5139,57.1499,230.0
83230,Skövde,13.8406,58.3943,146.595
105660,Solbacken,15.8636,60.3329,140.0
137100,Sollefteå,17.2802,63.1667,20.0
97560,Solsidan,17.5639,59.4,15.0
106060,Sonnbo,16.2838,60.1197,89.0
157860,Sorsele,17.5409,65.5387,350.191
74340,Spinkabo,14.4693,57.5653,285.0
53720,Staffanstorp,13.2166,55.65,20.0
176800,Staloluokta,16.4199,67.4083,600.0
53540,Stehag,13.3995,55.9033,60.0
154740,Stekenjokk,14.485,65.111,800.0
116610,Stenegård,16.1967,64.1991,134.0
86670,Stenkullen,16.2136,59.1664,35.0
96210,Stenkvista,16.5577,59.3221,35.0
78360,Stenstugu Försöksgård,18.4507,57.5979,45.0
169020,Stenträsk,19.8333,66.3166,410.0
95510,Stjärnfors,15.0166,59.8333,150.0
106270,Stjärnsund,16.2662,60.4551,130.0
73090,Stora Segerstad,13.5609,57.1461,180.0
136360,Storfinnforsen,16.1846,63.595,232.0
113610,Storfjället-Sälen,13.1166,61.1666,770.0
94320,Storfors,14.28,59.5365,120.0
146710,Storholmen,16.5465,64.649,345.0
117610,Storjungfrun,17.3333,61.1666,10.0
98140,Stormyra,18.3272,59.2024,15.646
159600,Stormyrheden,19.38,65.78,445.0
146520,Storseleby,16.8319,64.8069,430.0
122600,Storsätern,12.3139,62.0661,680.0
154710,Storvall,14.825,65.067,560.0
74650,Strandvallen,14.2833,57.85,110.0
97270,Strängnäs,17.0605,59.402,25.0
96030,Strängstorp,16.2166,59.05,62.0
161680,Sunderbyn,21.85,65.7,20.0
136640,Sundmo,16.7,63.5,200.0
115050,Svabensverk,15.7921,61.0442,240.0
53560,Svalöv,13.1174,55.9081,72.0
148620,Svanmyren,18.1295,64.5658,410.0
84780,Svansborg,14.847,58.3165,110.0
181890,Svappavaara,21.0558,67.6501,327.0
97220,Svartsjö,17.7392,59.3595,10.0
53780,Svedala,13.25,55.5083,47.0
81010,Säby,11.6015,58.0201,10.0
52660,Säbyholm,12.8333,55.9,10.0
97331,Säbyholm,17.5833,59.5056,5.0
92100,Säffle,12.9336,59.1407,52.926
113100,Sälen,13.2593,61.1691,360.0
105210,Säter,15.75,60.35,160.0
71500,Säve-Skålvisered,11.92,57.8305,20.0
74250,Sävsjö,14.6427,57.4004,225.0
94531,Sävsjön,14.5528,59.9111,210.0
105410,Sågmyra,15.3263,60.7004,257.0
64390,Sånnahult,14.8014,56.5875,175.0
82250,Såtenäs D,12.6928,58.4397,55.0
117170,Söderhamn,17.0967,61.3198,10.0
97120,Södertälje,17.6291,59.2141,43.221
127630,Söråker,17.5166,62.5166,45.0
53580,Teckomatorp,13.0917,55.8778,30.0
137560,Tegelträsk,17.904,63.9515,380.0
84630,Tidan,14.0,58.55,90.0
64320,Tingsryd-Degerhaga,14.8989,56.5375,162.965
72670,Tofta,12.2974,57.1666,45.0
96480,Tomta,16.55,59.8,55.0
103080,Torsby,12.9908,60.1075,127.0
76380,Tovehult,16.5682,57.642,25.0
84020,Tranås,14.9853,58.0389,155.0
85700,Tranåsbaden,14.9971,58.0499,150.0
53230,Trelleborg,13.1279,55.381,5.0
53510,Trollenäs,13.25,55.8666,55.0
82620,Trollhättan,12.3166,58.3,42.0
87540,Trosa,17.5666,58.9,5.0
113230,Trängslet,13.7235,61.3795,419.0
72520,Uddabo,12.7074,57.8701,245.0
81210,Uddevalla,11.9541,58.355,10.0
54580,Ugerup,14.1168,55.9657,20.0
128590,Ullånger,18.1794,62.9948,45.0
135500,Ulriksfors,15.6164,63.8345,285.0
97490,Ultuna,17.6469,59.8139,15.0
97210,Ulvhäll,17.044,59.3619,5.0
147460,Ulvoberg,17.2165,64.7627,520.0
114360,Ulvsjö,14.1847,61.6022,585.0
64650,Ulvö,14.6472,56.6,145.0
140490,Umeå-Röbäcksdalen,20.2397,63.8129,10.0
133200,Undersåker,13.3826,63.3269,330.0
107270,Untra,17.3409,60.4393,35.0
81640,Ursholmen,11.0,58.8333,6.0
64290,Urshult-Kunninge,14.8024,56.4782,145.0
151640,Ursviken,21.15,64.7166,5.0
78030,Valar,18.2194,57.0278,15.0
96000,Valla,16.3709,59.0185,50.0
97690,Vallstanäs,17.9133,59.5664,16.0
93240,Varpnäs,13.2906,59.4041,68.0
105630,Vassbo,15.5333,60.5333,120.0
188810,Vassijaure,18.258,68.4291,515.0
53290,Vellinge,13.0128,55.4714,10.0
75630,Vetlanda,15.0666,57.4166,200.0
97710,Vibynäs,17.4466,59.1664,12.0
75400,Vimmerby,15.8518,57.6687,110.0
63040,Vinslöv D,13.9244,56.0996,25.0
181900,Vittangi,21.6293,67.6841,250.0
167850,Vuonatjviken,17.2461,66.4934,520.0
98590,Väddö,18.8166,59.9833,10.0
98200,Värtan,18.1,59.35,20.0
107180,Väsby,17.4333,60.3,35.0
150270,Västanträsk,20.4055,64.4502,140.0
98080,Västerhaninge,18.1103,59.1195,30.0
85270,Västerlösa,15.3772,58.4447,75.0
122620,Västra Malmagen,12.1474,62.616,785.0
85630,Västra Ny,15.05,58.65,120.0
73190,Våthultström,13.4333,57.3166,163.0
97070,Wiad,17.7219,59.1116,12.0
124110,Ytterhogdal,14.9478,62.1817,263.585
147170,Yxsjö,17.5166,64.2833,350.0
84470,Älgarås D,14.3188,58.7906,145.0
94560,Älvhöjden,14.7889,59.9978,340.0
161690,Älvsby Skogsskola,21.0666,65.6833,40.0
91120,Äng,11.9791,59.0319,135.0
62710,Ängelholm,12.85,56.25,10.0
73690,Äspered,13.1805,57.9331,294.0
92600,Ågården,12.0141,59.183,110.0
97150,Åkers Styckebruk,17.0879,59.2511,20.0
97700,Ålandsdal,17.2799,59.8663,40.0
86450,Ålberga,16.5555,58.7462,25.0
179740,Ålloluokta,19.4976,67.1261,370.0
134600,Ålsta,14.3636,63.166,317.0
134620,Ålviken,14.4803,63.8825,325.0
125310,Ånge,15.6311,62.5219,160.0
151600,Ånäset,21.0457,64.2659,15.0
92380,Årjäng,12.1666,59.3833,130.0
75100,Åseda,15.3987,57.1462,230.0
73680,Åstafors,13.2139,57.4666,155.0
85130,Åtvidaberg,15.9833,58.2,100.0
82660,Ödskölt,12.1472,58.8458,175.0
96020,Öja,16.6029,59.0446,50.0
85220,Öjebro,15.2,58.3833,85.0
161800,Öjebyn,21.389,65.3566,5.0
87520,Ökna,16.3167,59.0833,35.0
66630,Ölvingstorp,16.1166,56.6166,15.0
63170,Örkelljunga,13.2839,56.2819,90.0
53470,Örtofta,13.25,55.7833,20.0
102170,Östmark-Åsarna,12.8534,60.2787,133.264
133470,Överäng,13.0734,63.7788,450.0
86700,Övre Gränsö,16.8333,58.35,5.0
104390,Flaten,14.4277,60.651,296.0
12722,Sidsjö,17.2855,62.3806,0.0
107020,Viksta,17.6181,60.0694,103.0
84140,Ödeshög D,14.653,58.2546,120.381
53750,Alnarp mellangård,13.0511,55.6556,5.0
73270,Axelfors,13.1,57.45,150.0
98280,Brevik,18.2,59.35,17.0
63190,Flåss myr,13.4819,56.3806,125.0
97610,Hässelby,17.8197,59.3727,25.0
62160,Höganäs,12.6014,56.1917,5.0
116720,Katrineberg,16.3,61.0666,250.0
171770,Lappträsket,21.7881,66.2283,60.0
161810,Lillpite,21.1653,65.375,15.0
93190,Mässvik,13.1139,59.2222,60.0
136270,Norrtannflo,16.9792,63.3903,140.0
97160,Norsborg 2,17.7989,59.2524,15.0
146150,Risnäset,16.4917,64.25,295.0
150110,Robertsfors,20.8467,64.1935,50.0
66460,Svartingstorp,16.3296,56.786,20.0
97730,Söderby,17.2083,59.0889,15.0
83150,Vedum,12.9944,58.1722,110.0
52620,Weibullsholm,12.8556,55.8722,5.0
124040,Ytterberg D,14.4911,62.0664,482.0
17121000,1712 Ristjärn Fjärryta,14.2919,59.3098,0.0
1,Akalla,17.8,59.5,23.0
139570,Balsjö,19.0611,63.925,195.0
75002,Borlänge GBG,15.4196,60.4746,0.0
5032,Braberg,16.3651,58.4488,0.0
99999,Enar-test,16.1589,58.5933,12.0
18,Enköping,17.0,59.7,15.0
20044,Grådö V,16.0283,60.2409,0.0
125490,Gustavsnäs D,15.9333,62.8108,300.0
106690,Gästrike-Hammarby 3,16.5833,60.5503,70.0
7,Gävle,17.15,60.68,12.0
75001,Gävle,17.1472,60.6838,0.0
14,Göteborg-Angered,12.5,57.8,90.0
15,Göteborg-Rosenlund,11.95,57.72,5.0
16,Göteborg-Rya,11.9,57.7,5.0
75004,Hallsberg,15.0599,59.0604,0.0
2001,Hallunda,17.8431,59.2475,0.0
71001,Helsingborg GBG,12.723,56.0248,0.0
8006,Hossmo,16.2156,56.6383,0.0
11044,Hov,12.7222,56.4337,0.0
20,Huddinge,18.0,59.2,30.0
2,Högdalen,17.8,59.3,42.0
4,Jönköping,14.2,57.8,120.0
73001,Jönköping GBG,14.1778,57.7639,0.0
8,Karlstad,13.5,59.5,60.0
11039,Källstorp,13.56,56.2206,0.0
19,Landskrona,12.85,55.87,10.0
16036,Lekåsa,12.8643,58.1442,0.0
71002,Malmö GBG,13.0145,55.6116,0.0
27,Nyköping,17.0,58.75,5.0
26,Ostersund,14.64,63.18,310.0
63710,Röslöv,13.7208,56.0141,95.0
3,Sigtuna,17.7,59.7,35.0
14013,Skulltorpsmotet,12.1345,57.7401,0.0
10,Solna,18.0,59.5,20.0
8027,Storgöl,15.8252,57.4232,0.0
25,Sundsvall,17.38,62.41,3.0
25009,Sävastön,21.7637,65.7576,0.0
72001,Sävenäs GBG,12.0372,57.7271,0.0
16035,Torsöbron V,13.8468,58.7812,0.0
71003,Trelleborg GBG,13.1588,55.3694,0.0
21,Trollhättan,12.3,58.29,50.0
105620,Ulfshyttan,15.3833,60.3,180.0
11,Umeå,20.25,63.83,10.0
28,Västerås,16.5748,59.6448,45.0
22,Växjö,14.81,56.88,170.0
24,Örnsköldsvik,18.71,63.29,15.0
74380,Eksjö I 12,14.9764,57.6736,224.0
79520,Fårösund,19.0142,57.8514,27.0
114150,Älvdalen 1,14.0833,61.25,255.0
173010,Aapua,23.4951,66.8656,210.0
157010,Abborrberg,16.6,65.4833,550.0
62570,Abild,12.7909,56.9512,145.0
158820,Adak,18.5839,65.3531,408.0
76510,Adelsberg,16.0667,57.8667,125.0
180790,Allavaara,20.1205,67.2594,480.0
98560,Almunge,18.0446,59.9334,18.689
93720,Alstrum,13.6,59.4833,70.0
103220,Andersviksberg,13.8749,60.3694,420.0
76410,Ankarsrum D,16.193,57.6784,96.501
116600,Arbrå,16.3801,61.4827,120.0
158980,Arjeplog-Myrheden D,18.2211,65.9785,450.325
92430,Arvika sanatorium,12.6194,59.6667,70.0
75280,Arvingetorp,15.0344,57.4496,210.0
95100,Asker D,15.4633,59.1593,37.648
75480,Askeryd,14.9925,57.8055,250.0
72620,Askim D,11.9618,57.6284,88.33
52530,Asmundtorp,12.95,55.8833,15.0
87600,Aspa D,17.1047,58.9277,26.636
84670,Aspa bruk,14.7971,58.7664,95.0
137220,Aspeå,17.4897,63.3971,250.34
78480,Austers D,18.63,57.81,29.205
145500,Avasjö-Borgafjäll D,15.1065,64.8395,540.84
117710,Backarna,16.3,61.5666,185.0
136490,Backe D,16.4038,63.8137,214.569
63550,Bakarebo D,13.6941,56.9026,145.973
132420,Baksjönäset,12.6526,63.7062,425.0
166840,Ballastviken,16.5346,66.49,470.0
62220,Baramossa,12.9855,56.3823,196.703
156230,Bastansjö D,16.197,65.3817,499.583
98410,Beateberg,18.4206,59.6576,40.0
53190,Beddingestrand,13.4286,55.3594,5.04
92040,Bengtsfors,12.2402,59.025,116.938
97130,Bergaholm,17.7164,59.2291,30.0
189740,Bergfors,19.8,68.15,480.0
158900,Bergnäsudden,18.15,65.6666,420.0
82370,Bergs säteri,12.4833,58.7167,55.0
117570,Bergsjö,17.0627,61.9485,60.0
158600,Bergvattnet,18.2462,65.0158,320.0
116160,Bergvik,16.835,61.2602,50.0
86160,Bersbo,16.0417,58.2635,100.0
155950,Biellojaure,15.7208,65.7992,600.0
139560,Bjurholm,19.22,63.9329,178.0
105470,Bjursås,15.4625,60.7438,227.889
105460,Bjursås-Sågsbo,15.3844,60.7746,400.0
138710,Bjurvattnet,18.9461,63.8825,225.0
62050,Bjuv D,12.8862,56.0958,15.0
66440,Bjärby D,16.708,56.7126,7.0
63180,Bjärnum D,13.7436,56.2908,79.897
155920,Björkbacken,15.5515,65.7456,515.0
95270,Björklund,15.2958,59.4208,48.0
98580,Björksättra,18.4833,59.9333,20.0
155850,Björkvik,15.5589,65.4987,435.0
86500,Björkvik D,16.5208,58.8409,30.967
82390,Björkåsen,12.6333,58.65,60.0
107620,Björn,17.9833,60.6333,4.0
122020,Björnliden,12.3953,62.0444,750.0
53380,Björnstorp,13.4122,55.6254,45.0
126020,Björsarv,16.2995,62.031,150.0
156780,Blaiken D,16.8563,65.2506,399.629
94350,Blankafors,14.7167,59.5333,160.0
157800,Blattnicksele,17.4606,65.3371,370.0
92550,Blåbärskullen,12.8833,59.8333,350.0
62720,Boarp,12.9333,56.3333,90.0
117640,Boda,17.0,61.5833,40.0
102040,Bogen,12.5558,60.0591,245.0
116730,Bollnäs,16.4166,61.35,55.0
116250,Bollnäs D,16.3731,61.4172,113.776
137020,Bollstabruk,17.6708,63.0042,70.0
63490,Bolmen,13.7003,56.8145,160.0
73020,Bolmsö,13.728,57.0152,160.0
135090,Bomsund,15.7568,63.1506,220.0
73340,Bondstorp D,13.9285,57.5892,295.0
135260,Borgvattnet D,15.8251,63.4229,386.316
92210,Borgviksbruk,12.9623,59.3534,55.0
105440,Borgärdet,15.9083,60.7344,140.0
81090,Bornö,11.5819,58.3806,3.0
74710,Botorp,14.75,57.9833,185.0
73350,Bottnaryd,13.8968,57.7416,242.0
133410,Bottnen,13.3671,63.6759,403.0
85120,Boxholm D,15.0215,58.2048,160.0
53420,Brandstad,13.7333,55.6833,95.0
113040,Branäs,13.4844,61.0665,480.0
140560,Brednoret D,20.7805,63.929,15.0
76310,Bredshult,16.2768,57.5249,60.0
138720,Bredträsk,18.6,63.8833,325.0
164720,Bredviken,14.75,66.1167,525.0
65170,Bredåkra D,15.2548,56.2523,40.0
107600,Bro,17.5799,60.3996,25.0
86620,Broby Skolhem,16.2968,58.4665,15.0
64070,Bromölla,14.4755,56.0641,5.574
122390,Bruksvallarna,12.4192,62.6421,700.0
63420,Brunnshult,13.1626,56.7119,165.0
84010,Brunström,14.4764,58.0,207.0
150200,Brände,20.9761,64.348,53.615
133400,Bränna,13.5494,63.6691,430.0
149390,Brännforssund,19.3532,64.6461,223.468
54410,Brösarp D,14.1025,55.7201,49.568
105610,Bullerforsen,15.4303,60.4996,125.0
78130,Burs D,18.5617,57.2265,24.5
150040,Bygdeå,20.8763,64.055,18.0
161700,Byske-Vitsjön D,21.2468,65.0143,30.0
64050,Bäckaskog,14.3364,56.0487,12.0
94610,Bäckatorp,14.65,59.1333,95.0
82490,Bäckefors,12.1554,58.8044,149.614
148370,Bäverträsk,18.3349,64.6168,351.276
65280,Böket,15.0167,56.4333,121.0
75610,Böksholm,15.0,57.0833,190.0
86220,Börrum D,16.6217,58.3522,16.196
123450,Börtnan,13.9111,62.729,455.0
92530,Charlottenberg,12.3005,59.8892,139.348
156740,Dajkanvik,16.3,65.1444,430.0
134420,Dal,14.1314,63.697,480.0
104320,Dala-Järna D,14.3624,60.5558,236.63
98090,Dalarö D,18.4111,59.1339,16.304
133620,Dalen,13.0666,63.3166,480.0
94570,Dalkarlsjöhyttan,14.1333,59.95,340.0
73400,Dalstorp,13.5115,57.6042,194.0
54480,Degeberga D,14.1675,55.7957,30.258
138110,Degersjö,18.0314,63.1902,295.0
93370,Dejefors,13.4776,59.6082,65.0
132370,Digernäset D,12.9179,63.6224,414.851
75080,Djupadal,15.5833,57.1528,200.0
84200,Djursätra,14.0599,58.3283,126.132
105330,Djurås D,15.1182,60.5581,165.0
98190,Djurö D,18.693,59.3077,4.575
84680,Drottningtorp,14.8304,58.0999,250.0
97590,Drälinge,17.5736,59.9923,30.0
73010,Dungen,13.7333,57.0166,150.0
105570,Dådran,15.5474,60.9402,215.0
124480,Dödre,14.6841,62.7912,348.778
81550,Ed D,11.7698,58.9092,163.82
126280,Ede,16.4948,62.4264,80.0
97600,Edeby,16.9967,59.4497,10.0
88560,Edesnäs,18.2861,58.9556,10.0
136240,Edsele,16.55,63.4047,165.0
62510,Eftra D,12.6452,56.8584,45.525
63720,Egernahult,13.3833,56.6166,150.0
85720,Ekeby,15.9333,58.9333,57.0
97360,Ekerö kyrka,17.7514,59.2806,15.0
84080,Eket,14.076,58.1131,275.0
149300,Ekorrträsk,19.0514,64.5021,220.0
74400,Eksjö,14.9832,57.669,211.0
97380,Enköping,17.0655,59.6406,14.314
85230,Erikstad Ö,15.8166,58.3833,70.0
65260,Eringsboda D,15.3522,56.4478,120.199
113080,Evertsberg,13.9663,61.134,430.0
160800,Fagerheden,20.9026,65.3373,220.0
75090,Fagerhult D,15.679,57.0806,175.458
105000,Fagersta,15.8045,60.0023,100.0
85090,Fallvik D,15.8608,58.1296,140.0
76610,Falsterbo Skola,16.37,57.65,45.0
136050,Fanbergstorp,16.7083,63.0764,290.0
155740,Fatmomakke,15.132,65.0915,580.0
63540,Femsjö,13.3778,56.89,177.0
115030,Finnbacka D,15.5747,61.0574,430.0
115610,Finsthögst,15.4969,61.3161,300.0
144260,Fiskåvattnet,14.7175,64.4367,375.0
94110,Fjugesta D,14.8557,59.1829,75.0
73550,Fjälla,13.0833,57.9166,260.0
156880,Fjällsjönäs,16.6157,65.6229,414.943
146250,Fjälltuna D,16.4191,64.4181,485.0
96460,Fjärdhundra D,16.9166,59.7666,30.0
148150,Flakaträsk,18.5184,64.2539,400.0
104360,Flatån,14.4333,60.6,245.0
104160,Flen,14.7667,60.3167,400.0
106640,Forsbacka,16.9166,60.6166,65.0
74430,Forserum,14.4685,57.7038,275.0
83380,Forshem,13.5,58.6125,60.0
136310,Forsnäset,16.6774,63.5215,200.0
122010,Foskros,12.6708,62.0016,545.0
72210,Fotskäl D,12.4112,57.438,132.0
126060,Franshammar,16.67,62.1,122.0
65180,Fridlevstad D,15.5362,56.2596,50.0
53550,Friggestad,13.9336,55.9032,150.0
144220,Frostviken D,14.314,64.3854,331.936
93320,Frykfors,13.2566,59.5307,65.0
106300,Främlingshem,16.9409,60.4993,75.0
96010,Frändesta,16.8801,59.0105,22.432
92440,Fröbol,12.4583,59.6542,60.0
65570,Fröseke,15.7819,56.9486,120.0
97550,Frötuna,17.8611,59.9077,15.0
53590,Fuglunda,13.8,55.5889,50.0
95480,Färna,15.8667,59.7833,80.0
144240,Fågelberget D,14.5262,64.3892,312.749
72640,Fågelnäs,12.4166,57.7666,110.0
114480,Fågelsjö D,14.6449,61.7977,412.0
115500,Föne D,15.8741,61.8359,181.01
76010,Föra,16.8816,57.0107,4.0
64090,Gammalstorp,14.6218,56.1118,15.0
106600,Gammelstilla,16.6134,60.4328,80.0
157790,Gargnäs D,17.9464,65.3251,300.661
125580,Gastsjön,15.8545,62.9595,330.0
84700,Gersebacken,14.3305,58.7497,145.0
104540,Gesunda D,14.5431,60.8872,184.668
76340,Getterum,16.2849,57.5691,80.0
155800,Gielas,15.0677,65.3272,570.0
63010,Gillastig,13.2311,56.0148,149.194
98060,Gillinge D,18.6545,59.1112,5.0
168760,Gittun,18.5504,66.3013,410.0
86510,Glindran,16.4162,58.8425,54.997
127040,Gnarp,17.2788,62.0647,70.0
97030,Gnesta,17.3201,59.0958,46.903
78340,Gothem,18.7666,57.5666,10.0
98430,Gottröra,18.1708,59.7236,20.0
145710,Granberget,15.9166,64.3,480.0
96060,Granhed D,16.4349,59.1012,55.277
181740,Granhult,21.8181,67.1216,270.287
136710,Graninge,16.95,63.0666,205.0
93730,Grannäs,13.8333,59.4333,60.0
75130,Granshult,15.0843,57.2036,315.0
147300,Gransjö,17.4599,64.4947,440.0
148200,Granträsk D,18.3756,64.3346,455.0
84730,Granvik,14.547,58.6331,95.0
163970,Granån,23.4267,65.9199,20.0
146010,Granåsen,16.807,64.0147,390.0
149150,Granö D,19.3089,64.251,183.69
72330,Grebbeshult,12.4614,57.5451,54.0
81420,Grebbestad,11.2485,58.6933,10.0
94330,Grecksåsar,14.8136,59.5477,227.0
135200,Greningen,15.4054,63.3271,390.0
64200,Grimsmåla,14.8805,56.326,90.0
97050,Grindsjön,17.8617,59.0809,45.0
93200,Grums,13.107,59.3493,67.634
64120,Grundsjön,14.586,56.129,140.0
116050,Gruvberget,16.1582,61.1031,358.0
105420,Grycksbo D,15.491,60.6907,160.0
85660,Gryt,15.3666,58.9,105.0
94420,Grythyttan,14.5287,59.7114,182.047
102700,Gräsfall,12.7167,60.4472,400.0
92560,Gräsmark,12.8992,59.9339,165.0
93310,Gräsås D,13.9365,59.5267,111.815
132680,Gråsjön,12.8691,63.7291,550.0
114300,Gråtbäck,14.7528,61.4139,524.0
76500,Grönhult,16.1583,57.7778,120.0
85610,Grönkulla,15.4636,58.5831,115.0
150440,Grönliden,20.1882,64.7287,308.016
65610,Grönåsen,15.447,56.8332,215.0
65630,Gullaboås,15.8833,56.4333,65.0
65530,Gullaskruv,15.6841,56.874,175.0
75490,Gullringen,15.6662,57.812,165.0
84590,Gullspång,14.1075,58.9859,61.015
137490,Gulsele,17.1282,63.8159,260.0
81590,Gunnesbyn,11.6951,58.9765,145.0
86260,Gustorp D,16.1311,58.4244,64.718
64220,Gyngamåla,14.8219,56.3463,110.0
171850,Gällivare-Flakaberg,21.9092,66.5189,240.0
106720,Gärdsjö,15.2333,60.9333,200.0
134060,Gärdsta,14.2833,63.1417,295.0
107410,Gävle-Lexe,17.098,60.6812,25.0
107430,Gävle-Åbyggeby,17.1098,60.7277,33.0
127480,Gåltjärn,17.5502,62.7949,269.122
72010,Gångarebo,12.916,57.0153,190.0
105400,Gårdvik,15.8119,60.7216,190.0
94460,Gåsbornshyttan,14.3417,59.8861,225.0
112360,Gördalen D,12.5003,61.5951,620.0
83370,Gössäter,13.4666,58.6166,60.0
75640,Götestorp,15.047,57.2666,320.0
74550,Habo,14.0779,57.91,175.0
72280,Haby,12.65,57.4666,60.0
97350,Hacksta,17.0505,59.5538,16.253
85550,Haddebo,15.3666,58.9166,120.0
105170,Haggården,15.9813,60.2672,100.0
171970,Hakkas,21.5757,66.9178,270.0
54430,Hallamölla,14.0106,55.7082,90.0
134120,Hallen,14.0918,63.1776,330.0
95040,Hallsberg,15.0805,59.0679,65.66
96390,Hallstaberg,16.797,59.6542,40.781
97460,Halmsjön,17.3042,59.6583,30.0
136060,Hammarstrand D,16.3499,63.1003,178.0
93260,Hammarö,13.5412,59.3211,55.668
135350,Hammerdal D,15.3714,63.5742,330.013
97060,Hamra,17.85,59.2167,44.0
124290,Handsjön D,14.7981,62.4761,291.343
160610,Haraliden,20.1,65.45,450.0
107080,Harbo,17.2382,60.1364,40.0
149010,Harrsele,19.5682,64.0193,115.0
115710,Hasberget,14.85,61.4333,480.0
126070,Hassela D,16.7849,62.1001,150.0
94710,Hasselfors,14.65,59.1,75.0
138360,Hattsjöbäcken D,18.9974,63.591,154.462
78510,Hau träsk,18.9944,57.8944,5.0
63480,Havraryd D,13.1384,56.7923,185.0
158830,Hedberg,18.8136,65.4273,440.0
105160,Hedemora,15.9872,60.2783,115.0
81310,Heden,11.5234,58.5176,48.841
107230,Hedesunda,17.0188,60.4049,61.0
76570,Hellerö,16.6482,57.9542,11.329
62020,Helsingborg 2,12.7496,56.0397,46.027
64210,Hemsjö,14.7138,56.3248,80.0
125030,Hennan D,15.9098,62.0303,215.0
81140,Henån,11.6794,58.2324,10.61
83060,Herrljunga D,13.0461,58.086,120.57
65560,Herråkra,15.1688,56.9255,235.0
96080,Herrökna,16.9653,59.1167,25.0
73220,Hid D,13.0457,57.3654,143.0
106610,Hillersbo,16.5833,60.0666,65.0
105390,Hillersboda,15.9356,60.7067,138.0
145090,Hillsand,15.3142,64.1097,320.903
72440,Hindås,12.4417,57.7083,135.0
65580,Hinshult,15.8733,56.9705,141.883
134200,Hissmofors,14.4733,63.3329,285.0
84180,Hjo,14.3161,58.3138,95.247
76370,Hjorted,16.3117,57.6215,70.0
85540,Hjortkvarn D,15.4451,58.931,82.761
83350,Hjälmsäter,13.3398,58.5829,80.0
137120,Hjälta kraftverk,17.1039,63.1845,95.0
62200,Hjärnarp,12.9166,56.3166,40.0
132660,Hoberg,12.9833,63.85,420.0
65150,Hoby,15.099,56.2163,20.0
106330,Hofors,16.2886,60.5394,120.0
150460,Holmfors D,20.5148,64.7845,133.49
108620,Holmsberg,18.3333,60.0166,50.0
140470,Holmön D,20.8563,63.7909,9.676
74020,Horda,14.2936,57.0252,190.0
94400,Hornkullen,14.2849,59.6506,260.0
72350,Horred,12.452,57.3751,70.241
113190,Horrmund,13.1615,61.3138,440.0
62270,Hov,12.7011,56.4495,42.467
72500,Hulan,12.2417,57.7556,20.0
126330,Hullsjön,16.7,62.55,315.0
75060,Hult,15.2333,57.1,265.0
86410,Hultsbruk D,16.1313,58.6756,50.349
74260,Hylletofta,14.4729,57.4399,270.0
64410,Hyltan,14.3335,56.6816,154.0
96200,Hyndevad,16.4402,59.3218,24.846
97450,Hyvlinge,17.0682,59.7475,20.0
123020,Häggberget D,13.0847,62.0302,682.0
132310,Häggsjön,12.7159,63.5158,480.0
72370,Häggårda,12.9426,57.6143,124.0
146600,Häggås,16.5965,64.3991,470.0
127160,Häljum,17.3358,62.2622,25.0
96090,Hälleforsnäs D,16.5063,59.1561,76.152
105720,Hällsjön,15.15,60.0333,235.0
114520,Härjeåsjön,14.2103,61.9105,413.0
64580,Härlöv,14.6333,56.9666,155.0
116070,Härnebo,16.7433,61.1321,92.0
72680,Härryda,12.2988,57.6865,91.107
72650,Härsjönäs,12.35,57.75,100.0
81580,Härslätt,11.9833,58.75,140.0
104140,Håen,14.4444,60.1847,380.0
144230,Håkafot D,14.3913,64.3914,310.0
64710,Hålabäck,14.6166,56.1166,10.0
81570,Håvelund,11.4385,58.9453,98.496
82500,Håvreström,12.4127,58.8216,55.0
63730,Högaryd,13.1666,56.7166,175.0
106410,Högbo,16.8193,60.6892,80.0
93350,Högboda,13.0242,59.5768,91.559
138410,Högbränna,18.6278,63.7361,211.0
84040,Högemålen D,14.5924,58.0561,286.83
92580,Högfors,12.8167,59.9833,200.0
127390,Höglandsbodarna D,17.4146,62.6336,65.0
107070,Högsbo,17.0254,60.1186,52.375
106710,Högskogen,17.2166,60.0166,70.0
95290,Högsta,15.4802,59.3521,10.0
74740,Högstorp,14.4833,57.85,255.0
126340,Högsvedjan,16.6992,62.5535,395.0
81530,Höksäter,11.8833,58.8833,140.0
53500,Hörby,13.6672,55.8506,65.0
104020,Hörken,14.9382,60.029,250.0
63620,Hörlinge,13.6833,56.2,55.0
112520,Idre D,12.7258,61.8583,450.0
117200,Iggesund,17.0889,61.65,20.0
127340,Indal D,17.1201,62.5663,70.0
105580,Ingels,15.2473,60.9437,190.0
64450,Ingelstad,14.9333,56.75,160.0
98340,Ingmarsö,18.7611,59.4806,15.0
138020,Invik,18.172,63.0255,10.0
173980,Jarhois,23.8356,66.9524,112.317
156860,Jiltjaur,16.982,65.537,435.0
172900,Jock,22.7215,66.6561,105.0
154920,Joesjö,14.6303,65.7306,490.0
104660,Johannisholm,14.1333,60.8333,280.0
86300,Jonsberg,16.8575,58.5059,10.0
72380,Jonsered,12.1833,57.7569,23.0
180950,Jukkasjärvi D,20.5786,67.853,328.676
157670,Juktfors,17.4833,65.2666,430.0
182830,Junosuando,22.5444,67.4236,215.0
95710,Jäders bruk,15.8,59.4,15.0
73630,Jägarhyddan,13.9472,57.2166,165.0
169030,Jäkna,19.02,66.05,395.0
103200,Järnbergsås,13.1272,60.3239,215.0
94380,Järnboås D,14.8861,59.6446,115.0
133220,Järpen,13.4578,63.3528,338.0
102470,Järpliden,12.4593,60.7798,430.0
160710,Jörn D,20.1015,65.0961,289.162
97660,Kairo,16.0468,59.5164,8.0
180010,Kaitum,20.1166,67.5333,490.0
149400,Kalvträsk D,19.8007,64.6701,287.35
182850,Kangos D,22.6622,67.5031,231.725
66610,Kapelludden,16.8468,56.8167,4.0
94200,Karlskoga,14.5485,59.3279,94.358
75320,Karlstorp D,15.507,57.5137,215.0
173710,Karungi,23.9722,66.0429,29.032
66260,Kastlösa,16.4186,56.4321,20.43
83430,Katrinefors,13.8333,58.7166,50.0
86590,Katrineholm D,16.1896,58.9773,30.0
183810,Kaunisvaara,23.3185,67.3612,180.0
133300,Kaxås-Åflo D,13.8765,63.4925,345.813
191960,Keinovuopio D,21.0337,68.8663,460.0
172960,Kenttäsaari D,22.8944,66.8155,135.0
182890,Keräntöjärvi,22.9211,67.6375,315.0
116150,Kilafors D,16.5535,61.2483,54.0
83220,Kilagården,13.2513,58.3563,88.044
62230,Killebäckstorp,12.7491,56.3822,50.0
180860,Killingi,20.2736,67.5199,485.0
73330,Kindsboda,13.3389,57.5925,170.0
102400,Kindsjön D,12.708,60.6584,425.462
75590,Kisa D,15.6318,57.984,114.854
53740,Klamby,13.7333,55.6666,85.0
78220,Klinte D,18.2463,57.3719,50.0
63070,Klippan,13.2489,56.1394,55.752
157970,Klippen D,17.109,65.897,518.0
114180,Klitten,14.1139,61.2806,450.0
132190,Klocka,12.506,63.2983,530.0
71660,Klädesholmen,11.55,57.95,10.0
161900,Klöverträsk D,21.4128,65.6348,66.095
148710,Knaften,18.6333,64.45,350.0
64150,Knislinge,14.1,56.2,15.0
97440,Knivsta,17.8078,59.7243,20.0
53570,Knopparp D,13.8466,55.9297,167.596
99650,Koholma,19.0666,59.7333,10.0
160850,Koler D,20.464,65.5028,288.174
95360,Kolsva D,15.9119,59.5875,45.744
82040,Komperöd,12.0085,58.0592,108.121
66170,Komstorp,16.0197,56.2774,10.0
65300,Konga,15.1227,56.4918,125.0
95520,Kopparberg D,15.0448,59.8593,128.675
86710,Koppartorp,16.9,58.6333,30.0
92420,Koppom D,12.151,59.7037,150.0
173950,Korpilombolo,23.0666,66.85,165.0
75180,Korsberga,15.2422,57.3101,187.192
106390,Korså,16.1451,60.638,185.0
170840,Koskats,20.2558,66.5074,230.0
92120,Krakstad,12.4812,59.1492,138.0
92110,Krakstad,12.4833,59.1767,240.0
127560,Kramfors,17.7615,62.9291,45.601
102240,Kristinefors,12.943,60.3586,135.0
84070,Krogstorp,14.0707,58.1058,310.0
76230,Krokshult D,16.0933,57.3834,127.157
124710,Krokströmmen,14.9,62.05,340.0
64570,Kronobergshed,14.575,56.9769,180.0
76280,Kråkemåla,16.6478,57.4605,13.63
138320,Kubbe,18.0691,63.5173,120.0
94620,Kullatorp,14.797,59.5164,250.0
95070,Kumla,15.1535,59.1248,50.0
190970,Kummavuopio,20.867,68.9078,465.0
106460,Kungsberget D,16.4651,60.7645,152.0
96320,Kungsör,16.0993,59.416,18.0
97720,Kurön,17.4972,59.325,10.0
150530,Kusmark D,20.8284,64.8836,57.718
173760,Kypasjärvi D,23.2263,66.192,80.232
156020,Kyrkberg,16.7666,65.2666,360.0
74500,Kyrkonäs,14.7188,57.8222,285.0
145150,Kyrktåsjö D,15.8454,64.2454,272.209
71710,Kyvik,11.9666,57.55,20.0
126580,Kälarne,16.1075,62.9628,305.0
74560,Källebäcken,14.1006,57.9623,149.601
193730,Kätkesuando,23.3283,68.1202,250.0
104510,Kättbo,14.1912,60.846,290.0
73200,Kävsjö D,13.9237,57.322,169.081
150500,Kåge,20.9406,64.8386,10.0
73720,Kållared,13.0666,57.8833,260.0
72360,Kållered D,12.0649,57.6095,28.338
115590,Kårböle,15.3235,61.9812,220.0
125240,Kölsillre,15.1709,62.3957,259.84
115570,Laforsen,15.5013,61.9445,200.0
127350,Lagfors,17.2072,62.6611,100.0
62300,Laholm D,12.9339,56.4936,11.665
155930,Laisaliden,15.1666,65.7666,640.0
52520,Landskrona D,12.85,55.8666,2.08
72410,Landvetter,12.2277,57.6874,60.0
172890,Lansjärv,22.1935,66.6575,90.0
173020,Lappträsk,23.512,66.0323,51.0
147390,Latikberg D,17.0833,64.6425,440.893
159900,Lauker,19.8259,65.6453,360.0
134470,Laxviken,14.6784,63.7901,315.0
84550,Laxå,14.6389,58.9833,105.0
148270,Ledningsmark,18.1333,64.45,410.0
144560,Leipikvattnet,14.1563,64.929,481.296
94150,Lekeberga,14.8769,59.2317,90.0
106110,Leknäs,16.5756,60.1917,71.0
102110,Lekvattnet D,12.7707,60.1332,205.0
65590,Lenhovda,15.2933,56.9893,265.0
105090,Lernbo,15.3166,60.15,115.0
94590,Lesjöfors D,14.1744,59.9812,255.125
102440,Letafors D,12.6961,60.7393,337.7
96250,Lida D,16.0124,59.3655,52.889
126390,Liden D,16.888,62.6553,75.0
145180,Lidsjöberg,15.221,64.3013,300.0
173780,Liehittäjä,23.4184,66.2668,135.0
63090,Lierna,13.2375,56.0264,160.0
146360,Lillgård,16.9333,64.4667,360.0
114390,Lillhamra D,14.7958,61.6428,424.0
73320,Limmared,13.3433,57.5415,170.0
93420,Lindfors,13.8366,59.6083,140.0
72710,Lindome,12.1,57.5833,10.0
72180,Linhult D,12.6845,57.2944,172.852
65390,Linneryd,15.1381,56.6592,140.0
96420,Lisjö,16.0615,59.7017,60.0
103310,Lisskogsåsen,13.4433,60.5007,445.0
134170,Litsnäset,14.7206,63.3097,256.0
78190,Ljugarn D,18.7132,57.3566,2.53
63100,Ljungaskog,13.2417,56.275,66.0
122510,Ljungdalen,12.807,62.8543,615.0
106090,Ljusbäck,16.8595,60.155,60.0
126120,Ljusdals-Valsjön,16.0364,62.195,299.84
117130,Ljusne Strömmar,17.0852,61.2116,10.0
115320,Lobonäs D,15.3416,61.5327,221.0
76540,Loftahammar,16.6962,57.9038,3.0
115450,Los D,15.1729,61.7206,398.0
62150,Louisefred,12.5741,56.2421,14.28
78440,Lummelunda,18.4347,57.7409,50.0
94300,Lundsberg,14.1635,59.4996,120.0
134310,Lundsjön,14.5232,63.5189,414.192
108650,Lundås,18.5797,60.0329,15.0
136720,Lungsjöbacken,16.2666,63.4666,320.0
168010,Luvos,18.8626,66.6322,420.0
65120,Lyckeby,15.7106,56.214,26.481
53350,Lyngby,13.3666,55.5833,50.0
64370,Länshult,14.0665,56.6083,160.0
134270,Långan D,14.4833,63.4547,296.574
63350,Långhult,13.4582,56.585,175.0
124050,Långströmmen,15.0,62.1166,280.0
159760,Långträsk D,19.2447,65.1941,306.229
102720,Lönnhöjden,12.8333,60.0166,320.0
64660,Lönsboda,14.3305,56.4,135.0
112020,Löten D,12.8365,61.0258,433.163
76080,Löttorp D,16.9472,57.1553,6.489
135580,Lövberga D,15.8437,63.9673,281.703
53400,Lövestad,13.8916,55.6429,76.564
113210,Lövnäs,13.3578,61.3445,445.0
134450,Lövsjön,14.7166,63.75,310.0
107250,Lövsta,17.884,60.4086,25.0
106420,Lövåker,16.3513,60.684,150.0
63300,Majenfors,13.4549,56.4968,80.0
149230,Malkälen D,19.6867,64.3909,240.17
122370,Malmagen,12.1836,62.5963,804.0
103620,Malmbacka,13.9804,60.0163,383.0
74360,Malmbäck D,14.5196,57.5983,331.756
96150,Malmköping,16.7306,59.1306,55.0
103110,Malta,13.725,60.0778,185.0
103400,Malungsfors,13.5368,60.7238,323.233
134070,Marby D,14.2926,63.1205,328.15
63410,Marbäck D,13.0329,56.7045,54.854
83290,Mariedal,13.4,58.4833,100.0
62090,Mariedal,12.7112,56.1443,10.0
105650,Marielund,15.0469,60.6162,170.0
99610,Marö,19.0631,59.6996,3.0
122270,Medskogen,12.9673,62.443,655.0
132320,Medstugan,12.4008,63.5255,547.717
138260,Mellansel,18.35,63.4333,60.0
181720,Mettä-Dokkas,21.2885,67.0676,270.0
105270,Milsbo D,15.6284,60.4471,130.0
102050,Mitandersfors D,12.5198,60.0854,220.0
65270,Mjuamåla,15.3205,56.4405,130.0
73110,Mjöhult,13.1854,57.1858,155.0
62170,Mjöhult,12.6819,56.1764,12.0
85710,Mjölby,15.15,58.3333,115.0
164730,Mjölkbäcken,14.8465,66.102,535.608
133510,Mjölkvattnet,13.3797,63.85,545.0
81650,Mo,11.55,58.7,60.0
74000,Moheda D,14.5683,57.0063,160.0
72530,Mollsjönäs D,12.1373,57.8634,94.68
96690,Morgongåva,16.9634,59.933,65.0
172720,Morjärv,22.751,66.0728,40.0
62620,Morups Tånge,12.3641,56.9332,5.0
181810,Moskojärvi,21.0787,67.3746,395.0
159950,Moskosel,19.4407,65.8778,332.685
103610,Mossfallet,13.9166,60.0166,270.0
94090,Mullhyttan,14.6833,59.15,90.0
137090,Multrå D,17.4195,63.1681,65.619
93500,Munkfors,13.5415,59.8482,80.0
96300,Munktorp D,16.2093,59.5238,27.0
137350,Myckelgensjö,17.5861,63.5762,207.357
74720,Mykinge,14.3166,57.9,230.0
92500,Myre,12.4416,59.7877,109.005
122200,Myskelåsen-Tännäs,12.6805,62.4379,597.81
125510,Mälgåsen D,15.3293,62.8514,306.507
113050,Mångsbodarna,13.6163,61.0792,435.678
72610,Mårdaklev,12.9806,57.2666,130.0
150280,Mårtensboda D,20.9446,64.4489,80.0
106050,Möklinta,16.5477,60.0849,70.0
93710,Mölnbacka,13.5666,59.6333,75.0
72390,Mölndal,12.0368,57.6595,61.0
76020,Mönsterås D,16.5029,57.0269,3.328
73410,Mörkö,13.7084,57.6881,345.0
126160,Naggen,15.9986,62.279,435.0
170940,Nattavaara-Vårsjö,20.581,66.7791,410.0
169010,Nausta,19.3,66.3666,470.0
169960,Nautijaur,19.2446,66.9044,355.0
97670,Neder-Hassla,17.5299,59.6496,15.0
123570,Nedgården,13.2534,62.9365,780.0
116360,Nianfors,16.7685,61.6013,174.0
116740,Niannoret,16.6,61.6,170.0
181770,Nilivaara,21.6072,67.226,320.0
74540,Nobynäs D,14.7952,57.9106,177.639
72660,Nol,12.0666,57.9166,10.0
107060,Nolmyra,17.1166,60.1,38.0
128500,Nora-Östanö D,18.1861,62.8487,48.297
105060,Norberg,15.9082,60.0651,135.379
139440,Nordanbäck D,19.291,63.7413,185.0
157020,Nordanås,17.7333,65.6333,480.0
156840,Nordanås,16.0867,65.462,403.453
92710,Noreborg,12.3333,59.7666,110.0
64110,Norjeby,14.6666,56.1166,5.0
113260,Nornäs D,13.2262,61.4301,461.835
168820,Norra Bergnäs,18.2333,66.3833,440.0
66380,Norra Möckleby D,16.6673,56.6331,10.725
64080,Norra Ströö,14.0028,56.1045,13.239
75540,Norra Vi D,15.3257,57.8828,231.232
102710,Norra Viggen,12.7166,60.4833,420.0
108040,Norrby,18.7385,60.0618,19.643
148550,Norrby,18.2404,64.9238,325.0
87530,Norrby Säteri,17.1932,58.8907,30.0
147430,Norrbäck,17.7154,64.7112,440.0
138470,Norrfors,18.9927,63.7705,118.0
140600,Norrfors kraftverk,20.0293,63.8659,60.0
107560,Norrsundet,17.1561,60.9297,5.0
98450,Norrtälje 1,18.7167,59.7667,10.0
98500,Norrveda,18.949,59.8294,23.253
97140,Norsborg 1,17.7834,59.2401,15.0
96180,Notholmen,16.0053,59.2948,24.0
82600,Nunntorp,12.3142,58.533,63.0
75230,Nyabyberg,15.2737,57.3911,220.0
74520,Nyarp,14.4639,57.9833,240.0
95440,Nyberget,14.9925,59.7468,200.0
98130,Nyboda,18.2306,59.2389,45.0
65440,Nybro-Slättingebygd D,15.9885,56.8503,92.842
97310,Nybyholm,17.038,59.5296,5.0
104180,Nyhammar,14.9784,60.2911,183.857
105190,Nyhyttan D,15.5566,60.3217,218.0
147630,Nyland,17.3333,64.4833,460.0
146530,Nyluspen,16.7489,64.8788,415.0
139620,Nyåker,19.3461,63.7992,70.0
98110,Nämdö,18.7318,59.1961,6.609
136600,Näsbrännan,16.9798,63.216,90.0
96110,Näshulta,16.2765,59.1946,45.492
136330,Nässjöängen,16.4056,63.5806,180.0
136260,Näsåker,16.9517,63.4179,128.919
104270,Nås,14.4825,60.4494,250.0
106540,Ockelbo,16.7424,60.8985,82.0
106550,Ockelbo 1,16.7241,60.8919,77.0
64500,Ohs,14.5852,56.8371,145.0
64250,Olastorp,14.3515,56.4188,140.0
133420,Olden D,13.6473,63.6951,344.362
137720,Oldsjön,17.4833,63.3333,200.0
135370,Ollebacken,15.0583,63.6028,515.0
75500,Olstorp,15.1,57.8333,200.0
84220,Omberg D,14.6938,58.3558,125.244
128570,Omne D,18.3643,62.9513,75.0
137320,Omsjö,17.1299,63.5319,245.0
71230,Onsala D,11.9721,57.3843,8.184
108710,Ora,18.08,60.02,10.0
65500,Orrefors D,15.6982,56.8213,174.688
114070,Orsa D,14.635,61.1298,177.0
103240,Osebol,13.2833,60.4,145.0
62480,Oskarström,12.9731,56.7939,15.0
64000,Ovesholm,13.9934,55.9901,60.0
126450,Oxsjö,16.7611,62.7778,215.0
172950,Paharova,22.3408,66.8107,215.0
181850,Parakka,21.6682,67.4864,340.025
93430,Pardixhyttan,13.9166,59.7166,163.0
183920,Parkajoki,23.4818,67.7301,201.0
71720,Pater noster,11.4666,57.9,8.0
75290,Pauliström,15.5037,57.4711,185.0
139550,Pengfors,19.6666,63.9333,80.0
137400,Pengsjö,17.8,63.6666,260.0
64380,Pjätteryd,14.0512,56.5842,156.379
62440,Plönninge,12.7458,56.7361,30.0
169990,Porjus 2 D,19.8443,66.9764,430.0
179940,Puoltsa,19.8596,67.7989,465.0
170760,Puottaure,20.2467,66.1858,316.418
53490,Pärup D,13.7464,55.8096,160.0
95680,Ramshyttan,15.0431,59.4514,185.0
155730,Ransaren D,15.0472,65.1391,560.0
123120,Ransjö,13.8743,62.1961,421.0
97020,Rastaborg,17.6542,59.3042,30.0
144550,Raukasjö,14.5567,64.9197,550.0
167820,Rebnisluspen,17.3331,66.4051,510.0
73080,Reftele D,13.5975,57.1689,150.196
85530,Regna D,15.6973,58.8595,70.0
132360,Rensjönäset,12.65,63.6,520.0
84210,Renstad,14.7236,58.3097,95.0
62010,Reymersholm,12.7218,56.0127,5.0
150080,Rickleå,20.9095,64.1111,11.975
98440,Rimbo,18.3535,59.7487,20.0
116080,Rimsbo,16.1833,61.1333,330.0
78430,Rings,18.6333,57.7166,50.0
81710,Ringseröd,11.7,58.1333,20.0
145420,Risbäck D,15.5385,64.7067,370.0
135040,Rissna D,15.3422,63.0584,302.072
78490,Risungs,18.9333,57.8166,20.0
81450,Rossö,11.1787,58.8501,4.265
136560,Rossön,16.3694,63.9338,234.498
125250,Rotnäset D,15.4386,62.3993,251.782
127430,Rundbacken,17.1765,62.7101,130.0
139320,Rundvik D,19.4377,63.5422,10.0
97340,Runsa,17.8252,59.5593,25.0
173880,Ruokojärvi,23.298,66.6127,170.0
148490,Rusksele D,18.8841,64.8154,236.565
64590,Räfsebo D,14.2101,56.9852,197.697
124280,Rätan,14.541,62.4836,359.575
103000,Råda,13.5948,59.9911,125.0
103630,Råforsen,13.7666,60.45,315.0
171800,Råneå-Flakaberg,21.847,66.3615,220.0
98470,Rånäs,18.3,59.7833,20.0
146260,Råsele,16.812,64.4191,330.0
172840,Rödupp,22.781,66.4572,56.768
62110,Rögle,12.8,56.1833,10.0
156830,Rönnberga,16.7333,65.4333,540.0
54380,Rörum,14.2666,55.6333,10.0
74150,Rörvik D,14.5726,57.2375,219.673
138130,Rössjö,18.3119,63.2203,150.0
191940,Saarikoski D,21.2468,68.8032,444.0
157750,Sadiliden,17.8145,65.1698,395.417
171990,Sadjem D,21.2272,66.9602,357.194
182800,Saittarova D,22.2308,67.3369,230.0
78270,Sanda,18.2111,57.4254,13.795
107320,Sandby,17.5972,60.5056,10.0
73580,Sandhem,13.7775,57.9652,273.0
132450,Sandnäset,12.4291,63.7542,432.177
74680,Sandvik,14.5137,57.8665,225.0
138080,Sanna,18.0733,63.1316,275.0
84760,Sanna,14.3137,58.3165,100.0
81380,Sanne,11.8739,58.6707,90.0
66220,Segerstad,16.5413,56.3688,6.477
63560,Seglehult,13.3393,56.9371,155.0
95200,Sickelsjö,15.8193,59.329,40.0
98320,Siggesta,18.5306,59.3736,15.0
147210,Siksjö,17.7866,64.3433,440.0
126470,Sillre,16.7236,62.7717,185.0
156800,Silverberg,16.1107,65.3496,530.0
94510,Silvergruvan,14.4759,59.8475,201.549
116340,Simeå,16.3252,61.5694,139.0
53340,Simontorp,13.5666,55.5833,70.0
144250,Sjulsåsen,14.7736,64.3486,300.0
146500,Sjöberg,16.2655,64.8273,500.0
53450,Sjöbo D,13.6797,55.6407,34.98
87590,Sjögärde,17.8384,58.9748,28.984
73360,Sjölund,13.9333,57.6,274.0
108670,Sjöslätt,18.35,60.025,20.0
73210,Sjötofta D,13.2946,57.3847,167.0
126220,Skallböle,16.966,62.3642,60.0
154840,Skalmodalen,14.5157,65.4485,440.0
137640,Skalmsjö,17.7666,63.5166,170.0
132720,Skalstugan,12.2805,63.5825,585.0
104720,Skattlösberg,14.7303,60.1828,332.0
114120,Skattungbyn D,14.8651,61.1979,205.074
181830,Skaulo,21.1195,67.4152,390.0
98690,Skebobruk,16.8368,60.0197,12.0
63460,Skeen,13.6776,56.7591,135.0
73070,Skeppshult D,13.4028,57.121,160.113
74270,Skillingaryd,14.0523,57.4134,218.402
92490,Skillingmark,11.9991,59.8212,130.0
156920,Skirknäs,16.1978,65.7474,520.0
75220,Skirö,15.3833,57.3666,160.0
97330,Skjörby,17.3667,59.5491,13.03
72060,Skogsforsen,12.8704,57.0944,100.0
95330,Skomakartorp,15.6143,59.5792,80.0
137710,Skorped,17.8666,63.3833,160.0
62000,Skromberga,12.9833,56.0,90.0
95690,Skrubby,15.0138,59.0498,65.0
94230,Skråmforsen,14.6119,59.3785,125.0
171930,Skröven D,21.8444,66.7757,150.0
96440,Skultuna,16.4325,59.7134,40.659
53280,Skurup D,13.4796,55.4405,35.0
85640,Skärblacka,15.9,58.5666,30.0
134440,Skärvången D,14.2938,63.7506,398.0
125600,Skån,15.0801,62.1494,294.0
96050,Sköldinge,16.4027,59.0578,31.614
95090,Sköllersta,15.2775,59.1441,50.0
158880,Slagnäs,18.1795,65.597,425.0
126240,Slättån,16.5507,62.3846,88.995
156930,Slätvik,16.05,65.7833,490.0
73100,Smålandsstenar,13.4166,57.1666,140.0
104310,Snöåby,14.4594,60.5227,230.0
137470,Solberg,17.6517,63.787,360.0
104560,Sollerön,14.5908,60.938,164.0
95340,Spannarboda D,15.4994,59.5793,67.509
84770,Spethult,14.3139,58.4997,115.0
95280,Spjutudden,15.4,59.491,50.0
93380,Spätterud,13.8583,59.6,137.0
145560,Stalon 1,15.8292,64.9503,540.0
145570,Stalon 2,15.8364,64.9451,365.0
94650,Stavrumstorp,14.7637,59.5163,250.0
86270,Stegeborg,16.6,58.4333,10.0
65620,Steneryd,15.8303,56.1334,15.0
150120,Stenfors,20.2977,64.1909,155.0
97570,Stenhamra,17.675,59.3389,10.0
136160,Stensjö,16.4446,63.2669,430.0
54340,Stiby,14.1884,55.563,71.164
83100,Stora Bjurum,13.4792,58.2639,130.0
144510,Stora Blåsjön,14.1528,64.8176,485.0
83180,Stora Ekeberg,13.5417,58.4056,130.0
141710,Stora Fjäderägg,21.0,63.8,20.0
74620,Stora Hyltan,14.25,57.2,245.0
105250,Stora Skedvi,15.7433,60.4101,103.202
96630,Stora Sundby,16.1333,59.2666,25.0
96620,Stora Sundby-Alberga,16.1166,59.2666,30.0
87510,Stora Uttervik,17.55,58.85,10.0
171940,Storberget,21.7652,66.7714,330.0
112230,Storbron,12.8559,61.3858,545.521
127320,Stordalen-Midlanda D,17.4178,62.5461,3.232
113710,Storfjäten,13.114,61.9827,700.0
113600,Storhärjeåvallen,13.4805,61.8661,500.0
172010,Storkölen,22.3,66.2666,250.0
144710,Storön,14.1166,64.6333,350.0
139710,Strand,19.9,63.8666,85.0
96240,Strängnäs-Vansö,16.9345,59.3957,14.619
85690,Strålsnäs,15.0971,58.2332,120.0
116580,Strömbacka,16.7138,61.9572,170.0
107240,Strömsberg,17.5833,60.4,25.0
63330,Strömsnäsbruk D,13.7372,56.5583,115.0
135550,Strömsund-Edet D,15.3148,63.9145,301.5
85190,Sturefors,15.7144,58.3159,85.0
78610,Stånga,18.4798,57.2832,25.0
65370,Stångsmåla D,15.1354,56.6103,136.818
103260,Stöllet D,13.2658,60.4107,149.705
92260,Stömne,12.7631,59.436,70.0
192760,Suddjavaara,22.7609,68.2048,350.0
87480,Sulsta,17.2556,58.8361,40.0
96410,Sundby,16.6606,59.6962,35.0
98030,Sundby,18.3944,59.0319,5.0
74570,Sunneränga,14.8728,57.7938,186.346
96430,Surahammar,16.2202,59.701,55.0
81670,Svandal,11.4474,58.683,75.0
173890,Svanstein,23.8556,66.6528,83.328
167790,Svartberget D,17.3176,66.3227,440.889
94070,Svartå,14.5278,59.126,90.0
127250,Svedje,17.3294,62.5143,5.0
135020,Svedjelandet,15.8421,63.0394,369.341
116620,Svedåsen,16.0967,61.5662,400.0
92200,Svensbyn D,12.3087,59.3252,125.0
75450,Svinhult D,15.388,57.7469,289.721
85200,Sya,15.2247,58.325,113.66
93660,Sälgvålen,13.23,59.75,70.0
126080,Sänningstjärn D,16.8643,62.1368,245.703
123370,Särvsjö D,13.1618,62.6309,640.0
72540,Sätila,12.4379,57.5468,65.0
97320,Sätra Gård,17.8446,59.5339,15.0
97250,Sättra,17.4754,59.4115,25.0
94530,Sävenfors,14.5408,59.882,200.0
65650,Sävsjöström,15.4138,56.9833,225.0
104150,Sågen D,14.1342,60.2611,264.169
93620,Såtång,13.8139,59.483,80.0
116170,Söderala D,16.9548,61.295,29.0
108180,Söderby-Karlsäng D,18.4475,60.2922,6.578
105040,Söderbärke D,15.571,60.064,121.604
86290,Söderköping,16.3419,58.4784,5.0
138450,Södersel D,18.1647,63.7462,386.446
54460,Södra Lökaröd,14.0913,55.7743,113.0
75430,Södra Vi D,15.7063,57.7172,173.568
102690,Södra Viggen,12.7069,60.45,450.0
92290,Sölje D,12.6608,59.5094,91.77
64060,Sölvesborg,14.5902,56.0573,5.0
83310,Söne,12.9853,58.5474,58.775
74030,Söraby,14.9446,57.0345,180.0
171720,Sörbyn,21.7822,66.0515,40.956
84490,Sörbytorp,14.6499,58.8122,187.257
105490,Sörskog,15.377,60.821,390.0
63030,Sösdala,13.6939,56.0355,90.0
125460,Sösjö,15.4996,62.7667,430.0
149470,Talliden,19.3637,64.7776,370.835
172780,Talljärv D,22.3044,66.2498,233.607
172750,Tallviksudden,22.8458,66.3431,40.0
134000,Tandsbyn D,14.7184,63.0092,415.0
63570,Tannåker,13.7741,56.9577,150.0
150020,Tavelsjö D,20.072,64.0392,116.179
92270,Tegen,12.3889,59.3972,230.0
104100,Telningsberg,14.6679,60.1829,270.0
83110,Tidaholm D,13.9829,58.1806,145.0
155990,Tjulträsk,15.955,65.9669,555.0
114710,Tjäderåsen,14.5,61.5666,621.0
85440,Tjällmo D,15.3704,58.7413,85.027
137660,Tjälsbyn,17.3833,63.85,355.0
106310,Tjärnäs,16.4172,60.5129,110.0
168970,Tjåmotis D,18.5363,66.9181,300.0
84530,Tolsgården,14.45,58.8833,230.0
53320,Tomelilla,13.9452,55.5529,66.047
64670,Tommarp,14.2305,56.1168,10.0
74140,Toraliden,14.7471,57.2295,260.0
85260,Tornby,15.6166,58.4166,40.0
66150,Torngård,16.5273,56.3312,10.0
73310,Torpa,13.2793,57.6496,170.0
96720,Torpaslätt,16.2,59.4166,10.0
139420,Torrböle D,19.5932,63.7076,75.0
64680,Torsebro,14.1305,56.1001,12.0
106290,Torsåker D,16.4818,60.5021,76.269
65250,Torsås,15.988,56.4112,20.0
124430,Tossåsen,14.3927,62.6967,410.0
64010,Tosteberga,14.4429,56.0094,10.0
97230,Tosterö skola,17.0333,59.4,20.0
83400,Traneberg,13.1483,58.6605,55.643
73290,Tranhult,13.8585,57.4882,330.0
113060,Transtrand D,13.3294,61.0797,335.0
98270,Tranvik,18.5717,59.4507,10.0
138460,Trehörningsjö,18.8732,63.6926,175.0
92540,Treskog,12.6195,59.8722,165.0
75620,Trollebo,15.3,57.3166,180.0
66180,Trolleboda D,16.0355,56.3008,10.0
86060,Tryserum D,16.7215,58.1025,20.231
160980,Trångfors,20.4634,65.842,80.0
144380,Trångmon,14.8619,64.6315,480.0
82160,Trökörna,12.6526,58.2683,68.987
74700,Tubbarp,14.5139,57.4666,320.0
134190,Tullus D,14.3134,63.3075,344.241
108610,Tuna,18.05,60.0166,20.0
97740,Tureberg,17.9667,59.4264,22.0
65200,Tvingelshed,15.579,56.3227,104.4
126050,Tvärforsen,16.2272,62.0852,225.0
127710,Tynderö,17.6166,62.45,50.0
104710,Tyngsjö,13.8833,60.3,345.0
98150,Tyresö,18.2833,59.25,5.0
87490,Tystberga D,17.3318,58.8236,32.0
105500,Tänger D,15.7612,60.8149,156.0
132710,Tännäs 1,12.6833,62.4333,570.0
132700,Tännäs 2,12.6958,62.4431,640.0
182740,Tärendö D,22.6287,67.1661,165.0
96540,Tärna,16.7472,59.8168,55.0
155890,Tärnamo,15.1297,65.6699,420.0
106120,Tärnsjö D,16.9483,60.1321,55.0
135430,Täxan,15.8315,63.7195,270.0
62120,Tånga,12.7756,56.201,12.108
169830,Tårrajaur,19.6885,66.4329,370.0
102460,Tåsan,12.8457,60.7657,255.614
91330,Töcksfors,11.7565,59.4892,222.54
84650,Töreboda,14.1333,58.7166,95.0
65140,Törneryd,15.0249,56.2297,15.0
84600,Törntorp,14.789,58.9849,175.0
92570,Uddheden D,12.9134,59.9437,108.0
85070,Ulrika,15.4353,58.1282,180.0
92450,Ulverud,12.2917,59.6167,280.0
126170,Ulvsjön D,16.4295,62.2708,383.38
155980,Umfors,15.0362,65.9473,525.0
75310,Ungsberg,15.916,57.5102,158.149
114230,Untorp,14.4166,61.3833,430.0
82060,Uplo,12.6568,58.1001,115.0
84030,Uppgränna,14.5322,58.0671,275.0
84710,Vad,14.0166,58.5666,85.0
84270,Vadstena D,14.889,58.4496,89.999
87610,Vagnhärad D,17.4614,58.9413,25.568
133100,Vallbo,13.0677,63.1547,582.0
98310,Vallentuna,18.0792,59.5185,25.728
112070,Vallsjön,12.8666,61.1166,470.0
116320,Vallsta,16.3694,61.5167,120.0
144040,Valsjöbyn,14.1433,64.0655,336.0
63060,Vanneberga,13.9189,56.0813,35.0
97480,Vassunda,17.723,59.7155,21.75
107010,Vattholma D,17.7207,60.0286,28.615
157980,Vaxborg,17.4821,65.9451,430.0
72170,Veddige D,12.3206,57.2616,15.074
145040,Vedjeön,15.3737,64.063,290.0
73710,Vekafors,13.7333,57.1,165.0
123350,Vemdalsskalet,13.975,62.4819,710.0
93630,Viberg,13.85,59.5333,90.0
86720,Viby,16.1666,58.4166,55.0
53790,Viggarum,13.9131,55.8138,180.0
105560,Vikarbyn D,15.0329,60.9189,225.0
125710,Viken,15.1666,62.3833,264.0
147710,Vinliden,17.8666,64.6333,480.0
94550,Vintersjöhöjden,14.35,59.9166,250.0
96570,Virsbo,16.05,59.8667,75.0
75190,Virserum-Rödmossa,15.5697,57.293,212.619
126270,Viskan,16.4291,62.4556,70.0
98120,Vissvass,18.3666,59.2,10.0
103210,Vitsand D,13.0065,60.3252,150.0
97540,Vittinge,17.023,59.9,52.42
54710,Vittskövle,14.1333,55.85,12.0
146510,Volgsele,16.7917,64.7333,390.0
53410,Vomb,13.5288,55.6629,27.018
86520,Vrena,16.6813,58.8736,30.847
63430,Vrå D,13.454,56.7361,150.0
171830,Vuoddas,21.7789,66.4083,200.0
170870,Vuollerim,20.6022,66.4311,121.492
64640,Väckelsång,14.9166,56.65,155.0
84190,Väderstad,14.9274,58.3143,120.0
136190,Vägersjön,16.4038,63.3159,440.0
136580,Vällingberget,16.8034,63.971,440.0
98570,Vällnora D,18.3431,59.9563,21.723
78230,Vänge,18.4862,57.4349,44.385
83300,Väring,13.9805,58.519,80.0
83550,Värmlandsnäs-Ekenäs D,13.2357,58.897,53.0
74110,Värnamo,14.05,57.1833,140.0
75340,Värne,15.0978,57.5386,204.819
93210,Väse D,13.8529,59.3673,54.417
135120,Västanbäck D,15.4774,63.1988,225.0
116530,Västansjö D,16.535,61.8774,55.0
107650,Västanå,17.4465,60.5829,30.0
78260,Västergarn,18.15,57.4333,2.0
126250,Västerlo D,16.6573,62.4133,105.0
96170,Västermo,16.0856,59.2747,31.786
98520,Västernäs,18.9833,59.7111,5.0
145210,Västertåsjö D,15.7037,64.3632,293.0
107260,Västland,17.6211,60.4435,23.0
98720,Västra Lagnö,18.75,59.5333,8.0
93450,Västra Ämtervik,13.1472,59.7278,100.0
103550,Västra Ärnäs,13.3756,60.9069,355.0
95250,Västvalla,15.6113,59.4171,19.997
64540,Växjö I 11,14.7806,56.8792,171.0
143600,Vågen,13.7139,64.6431,330.0
114080,Våmhus D,14.4164,61.1352,196.0
85350,Vånga D,15.8113,58.5876,42.85
82020,Vårgårda D,12.8537,58.0227,138.0
78540,Westö,18.7624,57.8934,20.0
107370,Ytterboda,17.45,60.6166,15.0
147020,Ytterrissjö D,17.7771,64.03,369.4
97290,Ytterselö D,17.2739,59.4065,16.964
75010,Älghult,15.5676,57.0141,217.586
75030,Älmeshult,15.198,57.0519,275.0
53520,Älmhult,13.8741,55.8656,180.0
94440,Älvestorp,14.5667,59.6333,170.0
106660,Älvgården,16.0467,60.3495,85.0
107340,Älvkarleby D,17.4596,60.5646,23.193
172690,Ängeså,22.3,66.75,100.0
97080,Ängsäter,17.7,59.3833,25.0
98700,Äpplarö,18.7298,59.483,10.0
64550,Åby,14.0126,56.9136,144.0
87580,Åda,17.5335,58.9273,7.53
54720,Åhus,14.2897,55.9435,9.558
63020,Åkeboda,13.9281,56.0308,95.0
127570,Åkroken D,17.238,62.9371,248.44
73060,Åminne D,13.9523,57.1231,171.101
85730,Åmmeberg,14.997,58.8664,90.0
92470,Åmotfors,12.3639,59.7666,95.0
92460,Åmotfors Pappersbruk,12.35,59.7666,85.0
82530,Ånimskog,12.5908,58.8766,56.961
76520,Åninge,16.05,57.8666,130.0
132670,Ånn,12.5305,63.3159,550.0
83680,Århult,13.7139,58.5664,115.0
71560,Årsnäs,11.7833,57.9333,5.0
83250,Åsaborg,13.7666,58.4166,300.0
124400,Åsarna D,14.3526,62.6594,448.047
95700,Åsbro,15.0302,58.9998,110.0
127090,Åsnorrbodarna,17.1724,62.1482,143.475
62540,Åstrilt,12.96,56.8956,175.0
149370,Åsträsk D,19.9778,64.6139,260.0
94040,Åtorps kraftverk,14.35,59.1,80.0
72510,Öjared,12.3838,57.8453,75.0
103490,Öje D,13.8607,60.8093,297.845
95240,Ön,15.1899,59.4028,49.521
66160,Öningaryd,16.0241,56.3315,12.0
126430,Öraåtjärnarna,16.1736,62.7155,343.002
138180,Örnsköldsvik,18.7252,63.3029,47.225
149080,Örträsk,18.9892,64.1337,213.0
115100,Östanvik,15.2187,61.1676,231.016
98330,Östanå,18.5766,59.5544,10.0
96760,Öster Säby,16.2302,59.433,15.0
107640,Österby,17.8965,60.1996,35.0
106180,Österfärnebo,16.8006,60.3047,75.0
99710,Östernäs,19.0,59.7166,10.0
107100,Östervåla D,17.148,60.135,48.35
98300,Österåker,18.2937,59.4897,15.0
108150,Östhammar,18.3696,60.26,5.0
94680,Östra Hulvik,14.797,59.1497,75.0
86320,Östra Husby D,16.5611,58.5373,26.117
93440,Östra Ämtervik,13.2136,59.7406,80.0
172760,Överkalix 1,22.85,66.3333,45.0
76590,Överum,16.3059,57.9912,30.0
191730,Övre Soppero,21.695,68.0894,362.268
171700,Övre Svartlå D,21.1727,66.0213,60.0
71130,Fladen,11.8556,57.217,15.0
5430,Bollerup,14.0395,55.4926,57.568
12100,SMHI Klimstn tmp/nbd test,16.15,58.5833,33.5
82590,Billingsfors,12.2589,58.9884,85.0
62240,Bingsgärde,12.9666,56.4,202.0
62730,Bjärbolund,12.7666,56.1833,7.0
163980,Björkfors,23.4666,65.9333,10.0
188680,Björkliden,18.68,68.38,360.0
98240,Bogesund,18.2314,59.4084,22.0
86170,Båtvik,16.079,58.2699,80.0
53310,Börringe Kloster,13.3293,55.5061,55.0
85080,Danielshammar,15.25,58.1333,170.0
85060,Danskebo,15.2511,58.106,175.0
97640,Hjulsta,17.0166,59.55,10.0
96100,Julita,16.0553,59.1635,30.0
53330,Kläggeröd,13.5166,55.5666,173.0
98220,Lidingö,18.16,59.3701,2.0
87560,Lindö,17.0333,58.9166,18.0
158970,Lövlund,18.1507,65.9075,480.0
93080,Medhamn,13.9833,59.1333,54.0
136220,Moforsen,16.9912,63.3683,70.0
62590,Morup,12.3911,56.9824,15.0
96730,Oxelby,16.2166,59.55,15.0
105290,Rankhyttan,15.7333,60.4833,130.0
63140,Röke,13.5278,56.2393,115.0
71570,Solberga,11.8155,57.9525,20.0
112410,Storbäcken,12.6,61.6833,675.0
140510,Stornorrfors,20.05,63.85,95.0
97650,Tjusta,17.6333,59.6,20.0
64140,Villands Vånga,14.3782,56.1803,20.0
54420,Vitemölla,14.204,55.6995,22.0
87550,Ökna Lantbruksskola,17.1569,58.8901,20.0
97410,Österby,17.6469,59.6563,15.0
105600,Avlången,15.1636,59.9996,300.0
127580,Badstuguhöjden,17.2667,62.9,380.0
52610,Barsebäck,12.9473,55.7668,10.0
95600,Bernshammar,15.7636,59.6663,60.0
148610,Bjurfors,18.4462,64.9158,400.0
148600,Bjuråker,18.5463,64.9158,270.0
73620,Bäck,13.9305,57.5999,270.0
73600,Dalslund,13.7639,57.7498,250.0
74610,Ed,14.1639,57.0832,155.0
83330,Ekby,13.8694,58.625,70.0
98480,Erken,18.6292,59.8333,15.0
102520,Fageråsdammen,12.8903,60.8639,410.0
135600,Fjälkvarn,15.0468,63.2659,250.0
72600,Floda,12.3473,57.7998,60.0
97420,Frölunda,17.7125,59.4597,10.0
95650,Guldsmedshyttan,15.097,59.6996,100.0
126600,Gäddtjärnåsen,16.2966,62.2827,416.0
132610,Gånälven,12.7305,63.9824,450.0
85670,Hagaberg,15.1302,58.9497,150.0
84720,Hagåsen,14.1,58.4333,130.0
86630,Hedenlunda,16.5968,58.9831,30.0
97470,Hjälsta by,17.3944,59.6944,10.0
75370,Hjältevad,15.3375,57.6278,170.0
95260,Hälla,15.6056,59.4222,25.0
53730,Högestad,13.8833,55.5,70.0
96650,Ingeborg,16.98,59.583,20.0
170610,Juggijaur,20.0291,66.6489,306.0
86640,Kalbo,16.0468,58.8498,70.0
180610,Kalixfors,20.2123,67.732,460.0
132651,Kjoland,12.8402,63.583,110.0
53170,Kurrarp,13.5417,55.5556,165.0
114610,Kvarntorp,14.1138,61.2828,60.0
132630,Kvarnån,12.864,63.3825,580.0
64180,Kyrkhult,14.5972,56.3556,145.0
84740,Källstad,14.7638,58.3665,96.0
53620,Källstorp,13.1306,55.95,90.0
63660,Lagan,13.9806,56.9166,140.0
83360,Lidköpings sockerbruk,13.1667,58.5083,47.0
96380,Lillhärad,16.3861,59.6528,35.0
97430,Lovö kyrka,17.8417,59.3236,15.0
74660,Lyckås,14.3471,57.8831,150.0
108660,Lågbol,18.4131,60.0164,20.0
73640,Långared,13.0806,57.8998,270.0
133520,Långsådalen,13.4236,63.7917,493.0
106620,Mackmyra,16.9634,60.6495,50.0
114620,Mora-Noret,14.5804,61.0162,171.0
180620,Muorjevare,20.9788,67.1821,440.0
98530,Myra,18.4583,59.9933,30.0
103120,Nain,13.825,60.2,230.0
97040,Nibbla,17.7292,59.2889,30.0
73240,Nissafors,13.6486,57.4097,165.0
98650,Norr-Jersjö,18.6464,59.8663,13.0
62100,Nybo,12.675,56.1778,10.0
108120,Nyborg,18.28,60.02,20.0
172600,Närsheden,22.3621,66.5322,95.0
82240,Nättjebacka,12.025,58.4694,95.0
74670,Nötekulla,14.6637,57.9831,250.0
98670,Penningby,18.6797,59.683,15.0
94630,Riseberga,14.8971,59.1664,95.0
96700,Rosenlund,16.7635,59.1497,41.0
106650,Runhällen,16.8467,60.0163,80.0
72590,Rydal,12.6973,57.5499,119.0
124281,Sandnäs,14.5694,62.4722,363.0
172710,Sendholmen,22.7351,66.0664,27.0
96710,Solbacka,16.9635,59.0997,30.0
181600,Soutojärvi,21.1287,67.4155,410.0
52570,Spargott,12.9653,55.9417,55.0
94640,Spjutsjöfallet,14.7137,59.733,270.0
66620,Stavviken,16.0636,56.9833,95.0
83120,Stenstorp,13.7278,58.2708,175.0
112600,Storhögen,12.8306,61.0662,550.0
95450,Stråssa,15.2056,59.7486,200.0
62210,Svedberga,12.7111,56.1639,15.0
97300,Sätra,17.5958,59.3819,15.0
96740,Sätra Brunn,16.4634,59.8663,75.0
97680,Taxinge-Näsby,17.3133,59.2497,5.0
65110,Tjärö,15.05,56.1722,10.0
83080,Torpa,13.3906,58.1569,180.0
65060,Torskors,15.6361,56.2097,15.0
133170,Trångsviken,13.9917,63.3389,300.0
54620,Tunbyholm,14.1472,55.6001,20.0
62640,Tylön,12.7141,56.65,6.0
73670,Uddebo,13.264,57.4831,170.0
74750,Ulvahult,14.5971,57.5166,340.0
86530,Valinge,16.6833,58.7944,20.0
75660,Vältsmåla,15.6137,57.1832,195.0
92390,Vännacka,12.1167,59.55,150.0
116630,Västernäs,16.1135,61.8494,130.0
132650,Vålådalen,12.9639,63.1492,596.0
53240,Ystad 2,13.813,55.4307,15.0
63690,Yxenhult,13.5306,56.4,110.0
102530,Äggsjön,12.9196,60.8279,435.0
95630,Äsplunda,15.3469,59.2997,25.0
107110,Örbyhus,17.7125,60.1972,30.0
63700,Österäng,13.064,56.5167,21.0
137600,Österåsens Sanatorium,17.1966,63.2159,180.0
94220,Östra Lonntorp,14.475,59.3861,115.0
92150,Östra Trättlanda,12.05,59.2833,125.0
53690,Övedskloster,13.6306,55.6833,25.0
72690,Öxabäck,12.821,57.3966,150.0
22123110,Arlov Hamngatan,13.0592,55.6364,2.158
22128052,Augustenborg,13.0271,55.5768,16.545
2214807,Barlastplatsen,11.9376,57.7001,5.0
2214803,Bergsjön,12.0733,57.7511,76.0
2222818,Bredsand,17.3662,62.3452,3.3
2222812,Bällsta,17.027,62.3446,23.0
2212804,Djupadal,12.9539,55.5746,11.1
2222811,Essvik,17.3847,62.308,5.0
2222813,Fillan,17.3868,62.4281,6.0
22088016,Grasgarde,16.1299,56.5406,15.3
2208804,Halltorp,16.0941,56.5004,15.4
2212806,Hammars Park,12.9149,55.5701,4.4
22128054,Hammars Park PST,12.915,55.5703,3.377
2222814,Heffners,17.3293,62.3941,5.0
22128055,Hoja TS,13.0679,55.5831,22.28
2222816,Indal,17.0882,62.577,54.5
2214801,Järnbrottsmotet,11.9431,57.6461,4.0
2208802,Kalmar avloppsreningsverk,16.3103,56.6591,2.2
22088015,Karlssons ang,16.3352,56.6981,5.3
2208805,Kolboda,16.1928,56.5354,2.9
22088020,Kroktorpasjon,15.8265,56.6495,0.0
22088017,Lackeby,16.2997,56.7817,9.2
22128051,Limhamn PST,12.9245,55.5848,1.796
2208803,Lindolundgatan,16.3551,56.6695,3.5
22088014,Lindsdal,16.3007,56.741,3.2
2208806,Ljunbyholm,16.1862,56.6349,10.7
22128140,Lund Norra VV,13.2043,55.7121,72.049
2208808,Paryd,15.9411,56.5708,62.5
22088018,Revsudden-Drag,16.427,56.78,8.5
2208809,Rinkabyholm,16.2688,56.6563,2.9
22088010,Rockneby,16.3622,56.7922,5.7
22128057,Sjolunda ARV,13.0419,55.6333,2.423
2208801,Skalby Vattenverk,16.3143,56.6771,3.7
22088011,Smedby,16.2232,56.685,10.1
2222819,Stångom,17.3779,62.2588,29.4
2222815,Stöde,16.5785,62.4129,55.5
22228110,Söråker,17.5095,62.4914,2.2
2214806,Tolered,11.9118,57.731,28.0
2214802,Torpagatan,12.0356,57.7186,36.0
2214804,Torslanda flygpl,11.7853,57.7121,6.0
22088012,Trekanten,16.1134,56.6973,35.0
22088013,Vassmolosa,16.1869,56.5889,13.9
22128144,Veberod TS,13.4924,55.6421,33.384
2212876,Beddinge,13.4542,55.3762,3.78
40788,HARSJON NEDERBORD,12.3212,57.7085,0.0
2212878,Klagstorp,13.3792,55.3982,32.2
40712,Landvettersjon neder,12.1834,57.6862,0.0
22128711,Smygehamn,13.3712,55.3457,8.7
40713,Stensjon nederbord,12.0502,57.6604,0.0
2212871,Trelleborg Sjöviksvägen,13.1198,55.3815,2.52
2212872,Trelleborg Skyttsgatan,13.16,55.3791,7.52
40711,Vastra nedsjon neder,12.4555,57.7179,0.0
65075,Karlskrona Sol,15.587,56.1091,10.0
